{
"type": "FeatureCollection",
"name": "hotosm_jpn_railways_points_geojson",
"features": [
{ "type": "Feature", "properties": { "name": "小宮", "name:en": "Komiya", "railway": "station", "ele": null, "operator:type": null, "layer": null, "addr:full": null, "addr:city": null, "source": "KSJ2", "name:ja": "小宮", "osm_id": 298330909, "osm_type": "nodes" }, "geometry": { "type": "Point", "coordinates": [ 139.368828799999989, 35.6855706 ] } },
{ "type": "Feature", "properties": { "name": "東福生", "name:en": "Higashi-Fussa", "railway": "station", "ele": null, "operator:type": null, "layer": null, "addr:full": null, "addr:city": null, "source": "KSJ2", "name:ja": "東福生", "osm_id": 298330916, "osm_type": "nodes" }, "geometry": { "type": "Point", "coordinates": [ 139.3359519, 35.7457424 ] } },
{ "type": "Feature", "properties": { "name": "東千葉", "name:en": "Higashi-Chiba", "railway": "station", "ele": null, "operator:type": null, "layer": null, "addr:full": null, "addr:city": null, "source": "GSI/KIBAN 2500;NARO", "name:ja": "東千葉", "osm_id": 2559434106, "osm_type": "nodes" }, "geometry": { "type": "Point", "coordinates": [ 140.1221308, 35.6168339 ] } },
{ "type": "Feature", "properties": { "name": "肥後橋", "name:en": "Higobashi", "railway": "station", "ele": null, "operator:type": null, "layer": null, "addr:full": null, "addr:city": null, "source": null, "name:ja": "肥後橋", "osm_id": 7893338345, "osm_type": "nodes" }, "geometry": { "type": "Point", "coordinates": [ 135.4963388, 34.6914959 ] } },
{ "type": "Feature", "properties": { "name": "四ツ橋", "name:en": "Yotsubashi", "railway": "station", "ele": null, "operator:type": null, "layer": null, "addr:full": null, "addr:city": null, "source": null, "name:ja": "四ツ橋", "osm_id": 7893338377, "osm_type": "nodes" }, "geometry": { "type": "Point", "coordinates": [ 135.4967532, 34.6740384 ] } },
{ "type": "Feature", "properties": { "name": "谷町九丁目", "name:en": "Tanimachi 9-chome", "railway": "station", "ele": null, "operator:type": null, "layer": null, "addr:full": null, "addr:city": null, "source": null, "name:ja": "谷町九丁目", "osm_id": 7940147786, "osm_type": "nodes" }, "geometry": { "type": "Point", "coordinates": [ 135.5158385, 34.6670853 ] } },
{ "type": "Feature", "properties": { "name": "壺阪山", "name:en": "Tsubosakayama", "railway": "station", "ele": null, "operator:type": null, "layer": null, "addr:full": null, "addr:city": null, "source": "KSJ2", "name:ja": "壺阪山", "osm_id": 413347595, "osm_type": "nodes" }, "geometry": { "type": "Point", "coordinates": [ 135.7948182, 34.4495924 ] } },
{ "type": "Feature", "properties": { "name": "新子安", "name:en": "Shin-Koyasu", "railway": "station", "ele": null, "operator:type": null, "layer": null, "addr:full": null, "addr:city": null, "source": null, "name:ja": "新子安", "osm_id": 172522965, "osm_type": "nodes" }, "geometry": { "type": "Point", "coordinates": [ 139.65416350000001, 35.4868754 ] } },
{ "type": "Feature", "properties": { "name": "福島", "name:en": "Fukushima", "railway": "station", "ele": null, "operator:type": null, "layer": null, "addr:full": null, "addr:city": null, "source": "KSJ2", "name:ja": "福島", "osm_id": 206431759, "osm_type": "nodes" }, "geometry": { "type": "Point", "coordinates": [ 140.4592144, 37.75454 ] } },
{ "type": "Feature", "properties": { "name": "鶯谷", "name:en": "Uguisudani", "railway": "station", "ele": null, "operator:type": null, "layer": null, "addr:full": null, "addr:city": null, "source": null, "name:ja": "鶯谷", "osm_id": 236578577, "osm_type": "nodes" }, "geometry": { "type": "Point", "coordinates": [ 139.7779166, 35.7217035 ] } },
{ "type": "Feature", "properties": { "name": "日暮里", "name:en": "Nippori", "railway": "station", "ele": null, "operator:type": null, "layer": null, "addr:full": null, "addr:city": null, "source": null, "name:ja": null, "osm_id": 236578667, "osm_type": "nodes" }, "geometry": { "type": "Point", "coordinates": [ 139.7706579, 35.7281495 ] } },
{ "type": "Feature", "properties": { "name": "巣鴨", "name:en": "Sugamo", "railway": "station", "ele": null, "operator:type": null, "layer": null, "addr:full": null, "addr:city": null, "source": null, "name:ja": "巣鴨", "osm_id": 236579126, "osm_type": "nodes" }, "geometry": { "type": "Point", "coordinates": [ 139.739427299999988, 35.7334119 ] } },
{ "type": "Feature", "properties": { "name": "西日暮里", "name:en": "Nishi-Nippori", "railway": "station", "ele": null, "operator:type": null, "layer": null, "addr:full": null, "addr:city": null, "source": null, "name:ja": "西日暮里", "osm_id": 236578741, "osm_type": "nodes" }, "geometry": { "type": "Point", "coordinates": [ 139.766668399999986, 35.7322021 ] } },
{ "type": "Feature", "properties": { "name": "田端", "name:en": "Tabata", "railway": "station", "ele": null, "operator:type": null, "layer": null, "addr:full": null, "addr:city": null, "source": null, "name:ja": "田端", "osm_id": 236578838, "osm_type": "nodes" }, "geometry": { "type": "Point", "coordinates": [ 139.761707, 35.7373723 ] } },
{ "type": "Feature", "properties": { "name": "駒込", "name:en": "Komagome", "railway": "station", "ele": null, "operator:type": null, "layer": null, "addr:full": null, "addr:city": null, "source": null, "name:ja": "駒込", "osm_id": 236579053, "osm_type": "nodes" }, "geometry": { "type": "Point", "coordinates": [ 139.7472412, 35.7365848 ] } },
{ "type": "Feature", "properties": { "name": "大塚", "name:en": "Otsuka", "railway": "station", "ele": null, "operator:type": null, "layer": null, "addr:full": null, "addr:city": null, "source": null, "name:ja": "大塚", "osm_id": 236579274, "osm_type": "nodes" }, "geometry": { "type": "Point", "coordinates": [ 139.7285879, 35.7316851 ] } },
{ "type": "Feature", "properties": { "name": "矢田", "name:en": "Yada", "railway": "station", "ele": null, "operator:type": null, "layer": null, "addr:full": null, "addr:city": null, "source": "KSJ2", "name:ja": "矢田", "osm_id": 7835147284, "osm_type": "nodes" }, "geometry": { "type": "Point", "coordinates": [ 136.9475909, 35.1937918 ] } },
{ "type": "Feature", "properties": { "name": "水戸", "name:en": "Mito", "railway": "station", "ele": null, "operator:type": null, "layer": null, "addr:full": null, "addr:city": null, "source": "KSJ2", "name:ja": "水戸", "osm_id": 240509491, "osm_type": "nodes" }, "geometry": { "type": "Point", "coordinates": [ 140.4762395, 36.370781 ] } },
{ "type": "Feature", "properties": { "name": "益田", "name:en": "Masuda", "railway": "station", "ele": null, "operator:type": null, "layer": null, "addr:full": null, "addr:city": null, "source": null, "name:ja": "益田", "osm_id": 6379761110, "osm_type": "nodes" }, "geometry": { "type": "Point", "coordinates": [ 131.8392389, 34.6782113 ] } },
{ "type": "Feature", "properties": { "name": "鳥取", "name:en": "Tottori", "railway": "station", "ele": null, "operator:type": null, "layer": null, "addr:full": null, "addr:city": "鳥取市", "source": null, "name:ja": "鳥取", "osm_id": 6054838547, "osm_type": "nodes" }, "geometry": { "type": "Point", "coordinates": [ 134.2259403, 35.4939974 ] } },
{ "type": "Feature", "properties": { "name": "猿橋", "name:en": "Saruhashi", "railway": "station", "ele": null, "operator:type": null, "layer": null, "addr:full": null, "addr:city": null, "source": null, "name:ja": null, "osm_id": 243887820, "osm_type": "nodes" }, "geometry": { "type": "Point", "coordinates": [ 138.9680239, 35.6128739 ] } },
{ "type": "Feature", "properties": { "name": "富士山", "name:en": "Mt Fuji", "railway": "station", "ele": null, "operator:type": null, "layer": null, "addr:full": null, "addr:city": null, "source": null, "name:ja": "富士山", "osm_id": 243818949, "osm_type": "nodes" }, "geometry": { "type": "Point", "coordinates": [ 138.795445699999988, 35.4835487 ] } },
{ "type": "Feature", "properties": { "name": "高麗川", "name:en": "Komagawa", "railway": "station", "ele": null, "operator:type": null, "layer": null, "addr:full": null, "addr:city": null, "source": "KSJ2", "name:ja": "高麗川", "osm_id": 3730443553, "osm_type": "nodes" }, "geometry": { "type": "Point", "coordinates": [ 139.337988599999989, 35.8962692 ] } },
{ "type": "Feature", "properties": { "name": "北浦和", "name:en": "Kita-Urawa", "railway": "station", "ele": null, "operator:type": null, "layer": null, "addr:full": null, "addr:city": null, "source": null, "name:ja": "北浦和", "osm_id": 244878189, "osm_type": "nodes" }, "geometry": { "type": "Point", "coordinates": [ 139.6461059, 35.8721554 ] } },
{ "type": "Feature", "properties": { "name": "与野", "name:en": "Yono", "railway": "station", "ele": null, "operator:type": null, "layer": null, "addr:full": null, "addr:city": null, "source": null, "name:ja": "与野", "osm_id": 244878195, "osm_type": "nodes" }, "geometry": { "type": "Point", "coordinates": [ 139.639152200000012, 35.8843981 ] } },
{ "type": "Feature", "properties": { "name": "さいたま新都心", "name:en": "Saitama-Shintoshin", "railway": "station", "ele": null, "operator:type": null, "layer": null, "addr:full": null, "addr:city": null, "source": null, "name:ja": "さいたま新都心", "osm_id": 244878198, "osm_type": "nodes" }, "geometry": { "type": "Point", "coordinates": [ 139.6339481, 35.8936374 ] } },
{ "type": "Feature", "properties": { "name": "蕨", "name:en": "Warabi", "railway": "station", "ele": null, "operator:type": null, "layer": null, "addr:full": null, "addr:city": null, "source": null, "name:ja": "蕨", "osm_id": 244878145, "osm_type": "nodes" }, "geometry": { "type": "Point", "coordinates": [ 139.690379900000011, 35.8281232 ] } },
{ "type": "Feature", "properties": { "name": "大阿太", "name:en": "Ōada", "railway": "station", "ele": null, "operator:type": null, "layer": null, "addr:full": null, "addr:city": null, "source": "KSJ2", "name:ja": "大阿太", "osm_id": 413348877, "osm_type": "nodes" }, "geometry": { "type": "Point", "coordinates": [ 135.766378, 34.3882844 ] } },
{ "type": "Feature", "properties": { "name": "若宮", "name:en": "Wakamiya", "railway": "station", "ele": null, "operator:type": null, "layer": null, "addr:full": null, "addr:city": null, "source": "KSJ2", "name:ja": "若宮", "osm_id": 263062685, "osm_type": "nodes" }, "geometry": { "type": "Point", "coordinates": [ 139.8283535, 37.5355611 ] } },
{ "type": "Feature", "properties": { "name": "会津西方", "name:en": "Aizu-Nishikata", "railway": "station", "ele": null, "operator:type": null, "layer": null, "addr:full": null, "addr:city": null, "source": "KSJ2", "name:ja": "会津西方", "osm_id": 263062814, "osm_type": "nodes" }, "geometry": { "type": "Point", "coordinates": [ 139.6619638, 37.4809743 ] } },
{ "type": "Feature", "properties": { "name": "会津越川", "name:en": "Aizu-Kosugawa", "railway": "station", "ele": null, "operator:type": null, "layer": null, "addr:full": null, "addr:city": null, "source": "KSJ2", "name:ja": "会津越川", "osm_id": 263063079, "osm_type": "nodes" }, "geometry": { "type": "Point", "coordinates": [ 139.4690323, 37.3985423 ] } },
{ "type": "Feature", "properties": { "name": "会津宮下", "name:en": "Aizu-Miyashita", "railway": "station", "ele": null, "operator:type": null, "layer": null, "addr:full": null, "addr:city": null, "source": "KSJ2", "name:ja": "会津宮下", "osm_id": 263063972, "osm_type": "nodes" }, "geometry": { "type": "Point", "coordinates": [ 139.6475532, 37.4712145 ] } },
{ "type": "Feature", "properties": { "name": "上条", "name:en": "Kamijō", "railway": "station", "ele": null, "operator:type": null, "layer": null, "addr:full": null, "addr:city": null, "source": "KSJ2", "name:ja": "上条", "osm_id": 263065568, "osm_type": "nodes" }, "geometry": { "type": "Point", "coordinates": [ 139.050894, 37.347094 ] } },
{ "type": "Feature", "properties": { "name": "入広瀬", "name:en": "Irihirose", "railway": "station", "ele": null, "operator:type": null, "layer": null, "addr:full": null, "addr:city": null, "source": "KSJ2", "name:ja": "入広瀬", "osm_id": 263065569, "osm_type": "nodes" }, "geometry": { "type": "Point", "coordinates": [ 139.0660163, 37.3584139 ] } },
{ "type": "Feature", "properties": { "name": "会津塩沢", "name:en": "Aizu-Shiozawa", "railway": "station", "ele": null, "operator:type": null, "layer": null, "addr:full": null, "addr:city": null, "source": "KSJ2", "name:ja": "会津塩沢", "osm_id": 263065570, "osm_type": "nodes" }, "geometry": { "type": "Point", "coordinates": [ 139.355457699999988, 37.3936494 ] } },
{ "type": "Feature", "properties": { "name": "会津横田", "name:en": "Aizu-Yokota", "railway": "station", "ele": null, "operator:type": null, "layer": null, "addr:full": null, "addr:city": null, "source": "KSJ2", "name:ja": "会津横田", "osm_id": 263063318, "osm_type": "nodes" }, "geometry": { "type": "Point", "coordinates": [ 139.4357281, 37.392224 ] } },
{ "type": "Feature", "properties": { "name": "七日町", "name:en": "Nanukamachi", "railway": "station", "ele": null, "operator:type": null, "layer": null, "addr:full": null, "addr:city": null, "source": null, "name:ja": "七日町", "osm_id": 263063319, "osm_type": "nodes" }, "geometry": { "type": "Point", "coordinates": [ 139.9191494, 37.5014696 ] } },
{ "type": "Feature", "properties": { "name": "根岸", "name:en": "Negishi", "railway": "station", "ele": null, "operator:type": null, "layer": null, "addr:full": null, "addr:city": null, "source": "KSJ2", "name:ja": "根岸", "osm_id": 263063388, "osm_type": "nodes" }, "geometry": { "type": "Point", "coordinates": [ 139.828690099999989, 37.5018238 ] } },
{ "type": "Feature", "properties": { "name": "早戸", "name:en": "Hayato", "railway": "station", "ele": null, "operator:type": null, "layer": null, "addr:full": null, "addr:city": null, "source": "KSJ2", "name:ja": "早戸", "osm_id": 263063594, "osm_type": "nodes" }, "geometry": { "type": "Point", "coordinates": [ 139.5935867, 37.4702287 ] } },
{ "type": "Feature", "properties": { "name": "会津坂下", "name:en": "Aizu-Bange", "railway": "station", "ele": null, "operator:type": null, "layer": null, "addr:full": null, "addr:city": null, "source": "KSJ2", "name:ja": "会津坂下", "osm_id": 263063605, "osm_type": "nodes" }, "geometry": { "type": "Point", "coordinates": [ 139.8210081, 37.5569104 ] } },
{ "type": "Feature", "properties": { "name": "塔寺", "name:en": "Todera", "railway": "station", "ele": null, "operator:type": null, "layer": null, "addr:full": null, "addr:city": null, "source": "KSJ2", "name:ja": "塔寺", "osm_id": 263063734, "osm_type": "nodes" }, "geometry": { "type": "Point", "coordinates": [ 139.7854902, 37.5697253 ] } },
{ "type": "Feature", "properties": { "name": "会津水沼", "name:en": "Aizu-Mizunuma", "railway": "station", "ele": null, "operator:type": null, "layer": null, "addr:full": null, "addr:city": null, "source": "KSJ2", "name:ja": "会津水沼", "osm_id": 263063765, "osm_type": "nodes" }, "geometry": { "type": "Point", "coordinates": [ 139.5605062, 37.4831489 ] } },
{ "type": "Feature", "properties": { "name": "本名", "name:en": "Honna", "railway": "station", "ele": null, "operator:type": null, "layer": null, "addr:full": null, "addr:city": null, "source": "KSJ2", "name:ja": "本名", "osm_id": 263063841, "osm_type": "nodes" }, "geometry": { "type": "Point", "coordinates": [ 139.4990402, 37.4449849 ] } },
{ "type": "Feature", "properties": { "name": "会津中川", "name:en": "Aizu-Nakagawa", "railway": "station", "ele": null, "operator:type": null, "layer": null, "addr:full": null, "addr:city": null, "source": "KSJ2", "name:ja": "会津中川", "osm_id": 263063882, "osm_type": "nodes" }, "geometry": { "type": "Point", "coordinates": [ 139.5319984, 37.4734442 ] } },
{ "type": "Feature", "properties": { "name": "会津柳津", "name:en": "Aizu-Yanaizu", "railway": "station", "ele": null, "operator:type": null, "layer": null, "addr:full": null, "addr:city": null, "source": "KSJ2", "name:ja": "会津柳津", "osm_id": 263064336, "osm_type": "nodes" }, "geometry": { "type": "Point", "coordinates": [ 139.723815699999989, 37.5390794 ] } },
{ "type": "Feature", "properties": { "name": "会津大塩", "name:en": "Aizu-Oshio", "railway": "station", "ele": null, "operator:type": null, "layer": null, "addr:full": null, "addr:city": null, "source": "KSJ2", "name:ja": "会津大塩", "osm_id": 263064566, "osm_type": "nodes" }, "geometry": { "type": "Point", "coordinates": [ 139.4134817, 37.3927414 ] } },
{ "type": "Feature", "properties": { "name": "会津坂本", "name:en": "Aizu-Sakamoto", "railway": "station", "ele": null, "operator:type": null, "layer": null, "addr:full": null, "addr:city": null, "source": "KSJ2", "name:ja": "会津坂本", "osm_id": 263064820, "osm_type": "nodes" }, "geometry": { "type": "Point", "coordinates": [ 139.75652, 37.5533464 ] } },
{ "type": "Feature", "properties": { "name": "大白川", "name:en": "Ōshirakawa", "railway": "station", "ele": null, "operator:type": null, "layer": null, "addr:full": null, "addr:city": null, "source": "KSJ2", "name:ja": "大白川", "osm_id": 263065744, "osm_type": "nodes" }, "geometry": { "type": "Point", "coordinates": [ 139.120983, 37.3416074 ] } },
{ "type": "Feature", "properties": { "name": "会津蒲生", "name:en": "Aizu-Gamo", "railway": "station", "ele": null, "operator:type": null, "layer": null, "addr:full": null, "addr:city": null, "source": "KSJ2", "name:ja": "会津蒲生", "osm_id": 263065974, "osm_type": "nodes" }, "geometry": { "type": "Point", "coordinates": [ 139.3332882, 37.3816379 ] } },
{ "type": "Feature", "properties": { "name": "越後広瀬", "name:en": "Echigo-Hirose", "railway": "station", "ele": null, "operator:type": null, "layer": null, "addr:full": null, "addr:city": null, "source": "KSJ2", "name:ja": "越後広瀬", "osm_id": 263066045, "osm_type": "nodes" }, "geometry": { "type": "Point", "coordinates": [ 138.981489, 37.274883 ] } },
{ "type": "Feature", "properties": { "name": "魚沼田中", "name:en": "Uonuma-Tanaka", "railway": "station", "ele": null, "operator:type": null, "layer": null, "addr:full": null, "addr:city": null, "source": "KSJ2", "name:ja": "魚沼田中", "osm_id": 263066521, "osm_type": "nodes" }, "geometry": { "type": "Point", "coordinates": [ 138.9926298, 37.2943922 ] } },
{ "type": "Feature", "properties": { "name": "会津若松", "name:en": "Aizu-Wakamatsu", "railway": "station", "ele": null, "operator:type": null, "layer": null, "addr:full": null, "addr:city": null, "source": "KSJ2", "name:ja": "会津若松", "osm_id": 263081995, "osm_type": "nodes" }, "geometry": { "type": "Point", "coordinates": [ 139.930134399999986, 37.5085622 ] } },
{ "type": "Feature", "properties": { "name": "東館", "name:en": "Higashidate", "railway": "station", "ele": null, "operator:type": null, "layer": null, "addr:full": null, "addr:city": null, "source": "KSJ2", "name:ja": null, "osm_id": 263168977, "osm_type": "nodes" }, "geometry": { "type": "Point", "coordinates": [ 140.4234185, 36.8701962 ] } },
{ "type": "Feature", "properties": { "name": "玉川村", "name:en": "Tamagawamura", "railway": "station", "ele": null, "operator:type": null, "layer": null, "addr:full": null, "addr:city": null, "source": "KSJ2", "name:ja": null, "osm_id": 263171062, "osm_type": "nodes" }, "geometry": { "type": "Point", "coordinates": [ 140.3744964, 36.579092 ] } },
{ "type": "Feature", "properties": { "name": "袋田", "name:en": "Fukuroda", "railway": "station", "ele": null, "operator:type": null, "layer": null, "addr:full": null, "addr:city": null, "source": "KSJ2", "name:ja": null, "osm_id": 263173754, "osm_type": "nodes" }, "geometry": { "type": "Point", "coordinates": [ 140.379592699999989, 36.7544103 ] } },
{ "type": "Feature", "properties": { "name": "津軽新城", "name:en": "Tsugaru-Shinjo", "railway": "station", "ele": null, "operator:type": null, "layer": null, "addr:full": null, "addr:city": null, "source": "KSJ2", "name:ja": "津軽新城", "osm_id": 263176826, "osm_type": "nodes" }, "geometry": { "type": "Point", "coordinates": [ 140.6720593, 40.8280508 ] } },
{ "type": "Feature", "properties": { "name": "かみのやま温泉", "name:en": "Kaminoyama-Onsen", "railway": "station", "ele": null, "operator:type": null, "layer": null, "addr:full": null, "addr:city": null, "source": "KSJ2", "name:ja": null, "osm_id": 263229121, "osm_type": "nodes" }, "geometry": { "type": "Point", "coordinates": [ 140.278530100000012, 38.1520989 ] } },
{ "type": "Feature", "properties": { "name": "平野", "name:en": "Hirano", "railway": "station", "ele": null, "operator:type": null, "layer": null, "addr:full": null, "addr:city": null, "source": "KSJ2", "name:ja": "平野", "osm_id": 263239925, "osm_type": "nodes" }, "geometry": { "type": "Point", "coordinates": [ 140.4428112, 37.8054388 ] } },
{ "type": "Feature", "properties": { "name": "あぶくま", "name:en": "Abukuma", "railway": "station", "ele": null, "operator:type": null, "layer": null, "addr:full": null, "addr:city": null, "source": null, "name:ja": null, "osm_id": 263242985, "osm_type": "nodes" }, "geometry": { "type": "Point", "coordinates": [ 140.686133, 37.913718 ] } },
{ "type": "Feature", "properties": { "name": "やながわ希望の森公園前", "name:en": "Yanagawa Kibonomori Koen-mae", "railway": "station", "ele": null, "operator:type": null, "layer": null, "addr:full": null, "addr:city": null, "source": "KSJ2", "name:ja": null, "osm_id": 263243929, "osm_type": "nodes" }, "geometry": { "type": "Point", "coordinates": [ 140.6155192, 37.8574948 ] } },
{ "type": "Feature", "properties": { "name": "富野", "name:en": "Tomino", "railway": "station", "ele": null, "operator:type": null, "layer": null, "addr:full": null, "addr:city": null, "source": "KSJ2", "name:ja": null, "osm_id": 263244900, "osm_type": "nodes" }, "geometry": { "type": "Point", "coordinates": [ 140.6272908, 37.874438 ] } },
{ "type": "Feature", "properties": { "name": "丸森", "name:en": "Marumori", "railway": "station", "ele": null, "operator:type": null, "layer": null, "addr:full": null, "addr:city": null, "source": "KSJ2", "name:ja": null, "osm_id": 263245073, "osm_type": "nodes" }, "geometry": { "type": "Point", "coordinates": [ 140.7615591, 37.9305042 ] } },
{ "type": "Feature", "properties": { "name": "岡", "name:en": "Oka", "railway": "station", "ele": null, "operator:type": null, "layer": null, "addr:full": null, "addr:city": null, "source": "KSJ2", "name:ja": "岡", "osm_id": 263246566, "osm_type": "nodes" }, "geometry": { "type": "Point", "coordinates": [ 140.7805741, 38.0191386 ] } },
{ "type": "Feature", "properties": { "name": "兜", "name:en": "Kabuto", "railway": "station", "ele": null, "operator:type": null, "layer": null, "addr:full": null, "addr:city": null, "source": "KSJ2", "name:ja": "兜", "osm_id": 263246581, "osm_type": "nodes" }, "geometry": { "type": "Point", "coordinates": [ 140.646611400000012, 37.8954216 ] } },
{ "type": "Feature", "properties": { "name": "西鎌倉", "name:en": "Nishikamakura", "railway": "station", "ele": null, "operator:type": null, "layer": null, "addr:full": null, "addr:city": null, "source": "KSJ2", "name:ja": "西鎌倉", "osm_id": 263262699, "osm_type": "nodes" }, "geometry": { "type": "Point", "coordinates": [ 139.504298299999988, 35.3193755 ] } },
{ "type": "Feature", "properties": { "name": "片瀬山", "name:en": "Kataseyama", "railway": "station", "ele": null, "operator:type": null, "layer": null, "addr:full": null, "addr:city": null, "source": "KSJ2", "name:ja": "片瀬山", "osm_id": 263262703, "osm_type": "nodes" }, "geometry": { "type": "Point", "coordinates": [ 139.496014300000013, 35.3172654 ] } },
{ "type": "Feature", "properties": { "name": "湘南深沢", "name:en": "Shonan-Fukasawa", "railway": "station", "ele": null, "operator:type": null, "layer": null, "addr:full": null, "addr:city": null, "source": "KSJ2", "name:ja": "湘南深沢", "osm_id": 263262803, "osm_type": "nodes" }, "geometry": { "type": "Point", "coordinates": [ 139.5188734, 35.332872 ] } },
{ "type": "Feature", "properties": { "name": "藪神", "name:en": "Yabukami", "railway": "station", "ele": null, "operator:type": null, "layer": null, "addr:full": null, "addr:city": null, "source": "KSJ2", "name:ja": "藪神", "osm_id": 263065976, "osm_type": "nodes" }, "geometry": { "type": "Point", "coordinates": [ 138.976124, 37.257108 ] } },
{ "type": "Feature", "properties": { "name": "越後須原", "name:en": "Echigo-Suhara", "railway": "station", "ele": null, "operator:type": null, "layer": null, "addr:full": null, "addr:city": null, "source": "KSJ2", "name:ja": "越後須原", "osm_id": 263066146, "osm_type": "nodes" }, "geometry": { "type": "Point", "coordinates": [ 139.017628699999989, 37.3204553 ] } },
{ "type": "Feature", "properties": { "name": "常陸大子", "name:en": "Hitachi-Daigo", "railway": "station", "ele": null, "operator:type": null, "layer": null, "addr:full": null, "addr:city": null, "source": "KSJ2", "name:ja": null, "osm_id": 263168723, "osm_type": "nodes" }, "geometry": { "type": "Point", "coordinates": [ 140.3506722, 36.7708676 ] } },
{ "type": "Feature", "properties": { "name": "会津桧原", "name:en": "Aizu-Hinohara", "railway": "station", "ele": null, "operator:type": null, "layer": null, "addr:full": null, "addr:city": null, "source": "KSJ2", "name:ja": "会津桧原", "osm_id": 263062815, "osm_type": "nodes" }, "geometry": { "type": "Point", "coordinates": [ 139.679831, 37.491996 ] } },
{ "type": "Feature", "properties": { "name": "新鶴", "name:en": "Niitsuru", "railway": "station", "ele": null, "operator:type": null, "layer": null, "addr:full": null, "addr:city": null, "source": "KSJ2", "name:ja": "新鶴", "osm_id": 263062831, "osm_type": "nodes" }, "geometry": { "type": "Point", "coordinates": [ 139.8285141, 37.517126 ] } },
{ "type": "Feature", "properties": { "name": "会津高田", "name:en": "Aizu-Takada", "railway": "station", "ele": null, "operator:type": null, "layer": null, "addr:full": null, "addr:city": null, "source": "KSJ2", "name:ja": "会津高田", "osm_id": 263062929, "osm_type": "nodes" }, "geometry": { "type": "Point", "coordinates": [ 139.841939, 37.470659 ] } },
{ "type": "Feature", "properties": { "name": "会津川口", "name:en": "Aizu-Kawaguchi", "railway": "station", "ele": null, "operator:type": null, "layer": null, "addr:full": null, "addr:city": null, "source": "KSJ2", "name:ja": "会津川口", "osm_id": 263062951, "osm_type": "nodes" }, "geometry": { "type": "Point", "coordinates": [ 139.5239282, 37.4551669 ] } },
{ "type": "Feature", "properties": { "name": "天童", "name:en": "Tendo", "railway": "station", "ele": null, "operator:type": null, "layer": null, "addr:full": null, "addr:city": null, "source": "KSJ2", "name:ja": null, "osm_id": 263224072, "osm_type": "nodes" }, "geometry": { "type": "Point", "coordinates": [ 140.369564200000013, 38.3599623 ] } },
{ "type": "Feature", "properties": { "name": "塔のへつり", "name:en": "Tonohetsuri", "railway": "station", "ele": null, "operator:type": null, "layer": null, "addr:full": null, "addr:city": null, "source": "KSJ2", "name:ja": "塔のへつり", "osm_id": 263251253, "osm_type": "nodes" }, "geometry": { "type": "Point", "coordinates": [ 139.901838700000013, 37.2748194 ] } },
{ "type": "Feature", "properties": { "name": "門田", "name:en": "Monden", "railway": "station", "ele": null, "operator:type": null, "layer": null, "addr:full": null, "addr:city": null, "source": "KSJ2", "name:ja": "門田", "osm_id": 263251755, "osm_type": "nodes" }, "geometry": { "type": "Point", "coordinates": [ 139.9138252, 37.4424389 ] } },
{ "type": "Feature", "properties": { "name": "ふるさと公園", "name:en": "Furusato-Koen", "railway": "station", "ele": null, "operator:type": null, "layer": null, "addr:full": null, "addr:city": null, "source": "KSJ2", "name:ja": "ふるさと公園", "osm_id": 263251955, "osm_type": "nodes" }, "geometry": { "type": "Point", "coordinates": [ 139.858808399999987, 37.2429516 ] } },
{ "type": "Feature", "properties": { "name": "湘南江の島", "name:en": "Shonan-Enoshima", "railway": "station", "ele": null, "operator:type": null, "layer": null, "addr:full": null, "addr:city": null, "source": "KSJ2", "name:ja": "湘南江の島", "osm_id": 263262808, "osm_type": "nodes" }, "geometry": { "type": "Point", "coordinates": [ 139.4877046, 35.3117271 ] } },
{ "type": "Feature", "properties": { "name": "東逗子", "name:en": "Higashi-Zushi", "railway": "station", "ele": null, "operator:type": null, "layer": null, "addr:full": null, "addr:city": null, "source": "KSJ2", "name:ja": "東逗子", "osm_id": 263266685, "osm_type": "nodes" }, "geometry": { "type": "Point", "coordinates": [ 139.6014075, 35.2988417 ] } },
{ "type": "Feature", "properties": { "name": "大船", "name:en": "Ōfuna", "railway": "station", "ele": null, "operator:type": null, "layer": null, "addr:full": null, "addr:city": null, "source": null, "name:ja": null, "osm_id": 263267206, "osm_type": "nodes" }, "geometry": { "type": "Point", "coordinates": [ 139.5314325, 35.3543087 ] } },
{ "type": "Feature", "properties": { "name": "横浜", "name:en": "Yokohama", "railway": "station", "ele": null, "operator:type": null, "layer": null, "addr:full": null, "addr:city": null, "source": "Bing", "name:ja": "横浜", "osm_id": 263274999, "osm_type": "nodes" }, "geometry": { "type": "Point", "coordinates": [ 139.6231953, 35.4662066 ] } },
{ "type": "Feature", "properties": { "name": "神奈川", "name:en": "Kanagawa", "railway": "station", "ele": null, "operator:type": null, "layer": null, "addr:full": null, "addr:city": null, "source": "KSJ2", "name:ja": "神奈川", "osm_id": 263275159, "osm_type": "nodes" }, "geometry": { "type": "Point", "coordinates": [ 139.6275201, 35.4715259 ] } },
{ "type": "Feature", "properties": { "name": "六浦", "name:en": "Mutsuura", "railway": "station", "ele": null, "operator:type": null, "layer": null, "addr:full": null, "addr:city": null, "source": "Bing", "name:ja": "六浦", "osm_id": 263298361, "osm_type": "nodes" }, "geometry": { "type": "Point", "coordinates": [ 139.6112899, 35.3225918 ] } },
{ "type": "Feature", "properties": { "name": "島越", "name:en": "Shimanokoshi", "railway": "station", "ele": null, "operator:type": null, "layer": null, "addr:full": null, "addr:city": null, "source": "KSJ2", "name:ja": "島越", "osm_id": 263306056, "osm_type": "nodes" }, "geometry": { "type": "Point", "coordinates": [ 141.939579, 39.916067 ] } },
{ "type": "Feature", "properties": { "name": "摂待", "name:en": "Settai", "railway": "station", "ele": null, "operator:type": null, "layer": null, "addr:full": null, "addr:city": null, "source": "KSJ2", "name:ja": "摂待", "osm_id": 263306071, "osm_type": "nodes" }, "geometry": { "type": "Point", "coordinates": [ 141.96216960000001, 39.8095699 ] } },
{ "type": "Feature", "properties": { "name": "一の渡", "name:en": "Ichinowatari", "railway": "station", "ele": null, "operator:type": null, "layer": null, "addr:full": null, "addr:city": null, "source": "KSJ2", "name:ja": "一の渡", "osm_id": 263306090, "osm_type": "nodes" }, "geometry": { "type": "Point", "coordinates": [ 141.942534, 39.686553 ] } },
{ "type": "Feature", "properties": { "name": "新田老", "name:en": "Shin-Taro", "railway": "station", "ele": null, "operator:type": null, "layer": null, "addr:full": null, "addr:city": null, "source": null, "name:ja": "新田老", "osm_id": 263306175, "osm_type": "nodes" }, "geometry": { "type": "Point", "coordinates": [ 141.967244, 39.7355245 ] } },
{ "type": "Feature", "properties": { "name": "白井海岸", "name:en": "Shirai-Kaigan", "railway": "station", "ele": null, "operator:type": null, "layer": null, "addr:full": null, "addr:city": null, "source": "KSJ2", "name:ja": "白井海岸", "osm_id": 263306558, "osm_type": "nodes" }, "geometry": { "type": "Point", "coordinates": [ 141.882947800000011, 40.0328525 ] } },
{ "type": "Feature", "properties": { "name": "佐羽根", "name:en": "Sabane", "railway": "station", "ele": null, "operator:type": null, "layer": null, "addr:full": null, "addr:city": null, "source": "KSJ2", "name:ja": "佐羽根", "osm_id": 263307225, "osm_type": "nodes" }, "geometry": { "type": "Point", "coordinates": [ 141.93588, 39.711118 ] } },
{ "type": "Feature", "properties": { "name": "陸中宇部", "name:en": "Rikuchuube", "railway": "station", "ele": null, "operator:type": null, "layer": null, "addr:full": null, "addr:city": null, "source": "KSJ2", "name:ja": "陸中宇部", "osm_id": 263307354, "osm_type": "nodes" }, "geometry": { "type": "Point", "coordinates": [ 141.7858819, 40.1324765 ] } },
{ "type": "Feature", "properties": { "name": "十府ヶ浦海岸", "name:en": "Tofugaurakaigan", "railway": "station", "ele": null, "operator:type": null, "layer": null, "addr:full": null, "addr:city": null, "source": null, "name:ja": "十府ヶ浦海岸", "osm_id": 263307451, "osm_type": "nodes" }, "geometry": { "type": "Point", "coordinates": [ 141.824187599999988, 40.0966886 ] } },
{ "type": "Feature", "properties": { "name": "普代", "name:en": "Fudai", "railway": "station", "ele": null, "operator:type": null, "layer": null, "addr:full": null, "addr:city": null, "source": "KSJ2", "name:ja": "普代", "osm_id": 263307753, "osm_type": "nodes" }, "geometry": { "type": "Point", "coordinates": [ 141.8862732, 40.0027981 ] } },
{ "type": "Feature", "properties": { "name": "田老", "name:en": "Tarou", "railway": "station", "ele": null, "operator:type": null, "layer": null, "addr:full": null, "addr:city": null, "source": "KSJ2", "name:ja": "田老", "osm_id": 263308639, "osm_type": "nodes" }, "geometry": { "type": "Point", "coordinates": [ 141.964384, 39.731517 ] } },
{ "type": "Feature", "properties": { "name": "堀内", "name:en": "Horinai", "railway": "station", "ele": null, "operator:type": null, "layer": null, "addr:full": null, "addr:city": null, "source": "KSJ2", "name:ja": "堀内", "osm_id": 263309450, "osm_type": "nodes" }, "geometry": { "type": "Point", "coordinates": [ 141.859458600000011, 40.0517534 ] } },
{ "type": "Feature", "properties": { "name": "田野畑", "name:en": "Tanohata", "railway": "station", "ele": null, "operator:type": null, "layer": null, "addr:full": null, "addr:city": null, "source": "KSJ2", "name:ja": "田野畑", "osm_id": 263315613, "osm_type": "nodes" }, "geometry": { "type": "Point", "coordinates": [ 141.9340522, 39.9339742 ] } },
{ "type": "Feature", "properties": { "name": "三陸", "name:en": "Sanriku", "railway": "station", "ele": null, "operator:type": null, "layer": null, "addr:full": null, "addr:city": null, "source": "KSJ2", "name:ja": "三陸", "osm_id": 264167727, "osm_type": "nodes" }, "geometry": { "type": "Point", "coordinates": [ 141.809986900000013, 39.1172003 ] } },
{ "type": "Feature", "properties": { "name": "陸前赤崎", "name:en": "Rikuzen-Akasaki", "railway": "station", "ele": null, "operator:type": null, "layer": null, "addr:full": null, "addr:city": null, "source": "KSJ2", "name:ja": "陸前赤崎", "osm_id": 264167729, "osm_type": "nodes" }, "geometry": { "type": "Point", "coordinates": [ 141.7421022, 39.0682084 ] } },
{ "type": "Feature", "properties": { "name": "甫嶺", "name:en": "Horei", "railway": "station", "ele": null, "operator:type": null, "layer": null, "addr:full": null, "addr:city": null, "source": "KSJ2", "name:ja": "甫嶺", "osm_id": 264167730, "osm_type": "nodes" }, "geometry": { "type": "Point", "coordinates": [ 141.806579199999987, 39.093452 ] } },
{ "type": "Feature", "properties": { "name": "吉浜", "name:en": "Yoshihama", "railway": "station", "ele": null, "operator:type": null, "layer": null, "addr:full": null, "addr:city": null, "source": "KSJ2", "name:ja": "吉浜", "osm_id": 264167812, "osm_type": "nodes" }, "geometry": { "type": "Point", "coordinates": [ 141.8360118, 39.1510917 ] } },
{ "type": "Feature", "properties": { "name": "平田", "name:en": "Heita", "railway": "station", "ele": null, "operator:type": null, "layer": null, "addr:full": null, "addr:city": null, "source": "KSJ2", "name:ja": "平田", "osm_id": 264167895, "osm_type": "nodes" }, "geometry": { "type": "Point", "coordinates": [ 141.8860497, 39.2460523 ] } },
{ "type": "Feature", "properties": { "name": "綾里", "name:en": "Ryori", "railway": "station", "ele": null, "operator:type": null, "layer": null, "addr:full": null, "addr:city": null, "source": "KSJ2", "name:ja": "綾里", "osm_id": 264167942, "osm_type": "nodes" }, "geometry": { "type": "Point", "coordinates": [ 141.798978799999986, 39.0542007 ] } },
{ "type": "Feature", "properties": { "name": "船岡", "name:en": "Funaoka", "railway": "station", "ele": null, "operator:type": null, "layer": null, "addr:full": null, "addr:city": null, "source": "KSJ2", "name:ja": null, "osm_id": 264175299, "osm_type": "nodes" }, "geometry": { "type": "Point", "coordinates": [ 140.768011300000012, 38.0594138 ] } },
{ "type": "Feature", "properties": { "name": "大河原", "name:en": "Ogawara", "railway": "station", "ele": null, "operator:type": null, "layer": null, "addr:full": null, "addr:city": null, "source": "KSJ2", "name:ja": null, "osm_id": 264176370, "osm_type": "nodes" }, "geometry": { "type": "Point", "coordinates": [ 140.740428, 38.0474645 ] } },
{ "type": "Feature", "properties": { "name": "金谷川", "name:en": "Kanayagawa", "railway": "station", "ele": null, "operator:type": null, "layer": null, "addr:full": null, "addr:city": null, "source": "KSJ2", "name:ja": null, "osm_id": 264176799, "osm_type": "nodes" }, "geometry": { "type": "Point", "coordinates": [ 140.451952799999987, 37.6807621 ] } },
{ "type": "Feature", "properties": { "name": "松川", "name:en": "Matsukawa", "railway": "station", "ele": null, "operator:type": null, "layer": null, "addr:full": null, "addr:city": null, "source": "KSJ2", "name:ja": null, "osm_id": 264177037, "osm_type": "nodes" }, "geometry": { "type": "Point", "coordinates": [ 140.4842295, 37.6537618 ] } },
{ "type": "Feature", "properties": { "name": "安達", "name:en": "Adachi", "railway": "station", "ele": null, "operator:type": null, "layer": null, "addr:full": null, "addr:city": null, "source": "KSJ2", "name:ja": null, "osm_id": 264177181, "osm_type": "nodes" }, "geometry": { "type": "Point", "coordinates": [ 140.466451799999987, 37.6122242 ] } },
{ "type": "Feature", "properties": { "name": "日和田", "name:en": "Hiwada", "railway": "station", "ele": null, "operator:type": null, "layer": null, "addr:full": null, "addr:city": null, "source": "KSJ2", "name:ja": null, "osm_id": 264177195, "osm_type": "nodes" }, "geometry": { "type": "Point", "coordinates": [ 140.388389600000011, 37.4464083 ] } },
{ "type": "Feature", "properties": { "name": "五百川", "name:en": "Gohyakugawa", "railway": "station", "ele": null, "operator:type": null, "layer": null, "addr:full": null, "addr:city": null, "source": "KSJ2", "name:ja": null, "osm_id": 264177271, "osm_type": "nodes" }, "geometry": { "type": "Point", "coordinates": [ 140.3879072, 37.4828489 ] } },
{ "type": "Feature", "properties": { "name": "久田野", "name:en": "Kutano", "railway": "station", "ele": null, "operator:type": null, "layer": null, "addr:full": null, "addr:city": null, "source": "KSJ2", "name:ja": null, "osm_id": 264177536, "osm_type": "nodes" }, "geometry": { "type": "Point", "coordinates": [ 140.259780799999987, 37.1373864 ] } },
{ "type": "Feature", "properties": { "name": "白河", "name:en": "Shirakawa", "railway": "station", "ele": null, "operator:type": null, "layer": null, "addr:full": null, "addr:city": null, "source": "KSJ2", "name:ja": null, "osm_id": 264177583, "osm_type": "nodes" }, "geometry": { "type": "Point", "coordinates": [ 140.212990100000013, 37.1301635 ] } },
{ "type": "Feature", "properties": { "name": "二本松", "name:en": "Nihonmatsu", "railway": "station", "ele": null, "operator:type": null, "layer": null, "addr:full": null, "addr:city": null, "source": "KSJ2", "name:ja": null, "osm_id": 264178068, "osm_type": "nodes" }, "geometry": { "type": "Point", "coordinates": [ 140.4355421, 37.5894592 ] } },
{ "type": "Feature", "properties": { "name": "泉崎", "name:en": "Izumizaki", "railway": "station", "ele": null, "operator:type": null, "layer": null, "addr:full": null, "addr:city": null, "source": "KSJ2", "name:ja": null, "osm_id": 264178071, "osm_type": "nodes" }, "geometry": { "type": "Point", "coordinates": [ 140.298694899999987, 37.1583899 ] } },
{ "type": "Feature", "properties": { "name": "黒田原", "name:en": "Kurodahara", "railway": "station", "ele": null, "operator:type": null, "layer": null, "addr:full": null, "addr:city": null, "source": "KSJ2", "name:ja": null, "osm_id": 264180326, "osm_type": "nodes" }, "geometry": { "type": "Point", "coordinates": [ 140.1196133, 37.0227939 ] } },
{ "type": "Feature", "properties": { "name": "杉田", "name:en": "Sugita", "railway": "station", "ele": null, "operator:type": null, "layer": null, "addr:full": null, "addr:city": null, "source": "KSJ2", "name:ja": null, "osm_id": 264180767, "osm_type": "nodes" }, "geometry": { "type": "Point", "coordinates": [ 140.4136675, 37.563211 ] } },
{ "type": "Feature", "properties": { "name": "蒲須坂", "name:en": "Kamasusaka", "railway": "station", "ele": null, "operator:type": null, "layer": null, "addr:full": null, "addr:city": null, "source": "KSJ2", "name:ja": null, "osm_id": 264180828, "osm_type": "nodes" }, "geometry": { "type": "Point", "coordinates": [ 139.9502693, 36.7212122 ] } },
{ "type": "Feature", "properties": { "name": "豊原", "name:en": "Toyohara", "railway": "station", "ele": null, "operator:type": null, "layer": null, "addr:full": null, "addr:city": null, "source": "KSJ2", "name:ja": null, "osm_id": 264181231, "osm_type": "nodes" }, "geometry": { "type": "Point", "coordinates": [ 140.1556233, 37.0554937 ] } },
{ "type": "Feature", "properties": { "name": "野崎", "name:en": "Nozaki", "railway": "station", "ele": null, "operator:type": null, "layer": null, "addr:full": null, "addr:city": null, "source": "KSJ2", "name:ja": null, "osm_id": 264183498, "osm_type": "nodes" }, "geometry": { "type": "Point", "coordinates": [ 139.9579832, 36.8437535 ] } },
{ "type": "Feature", "properties": { "name": "氏家", "name:en": "Ujiie", "railway": "station", "ele": null, "operator:type": null, "layer": null, "addr:full": null, "addr:city": null, "source": "KSJ2", "name:ja": null, "osm_id": 264183592, "osm_type": "nodes" }, "geometry": { "type": "Point", "coordinates": [ 139.962198, 36.681443 ] } },
{ "type": "Feature", "properties": { "name": "間々田", "name:en": "Mamada", "railway": "station", "ele": null, "operator:type": null, "layer": null, "addr:full": null, "addr:city": null, "source": "KSJ2", "name:ja": "間々田", "osm_id": 264184513, "osm_type": "nodes" }, "geometry": { "type": "Point", "coordinates": [ 139.761192, 36.258002 ] } },
{ "type": "Feature", "properties": { "name": "小川原", "name:en": "Kogawara", "railway": "station", "ele": null, "operator:type": null, "layer": null, "addr:full": null, "addr:city": null, "source": "KSJ2", "name:ja": "小川原", "osm_id": 264186812, "osm_type": "nodes" }, "geometry": { "type": "Point", "coordinates": [ 141.2995492, 40.7100437 ] } },
{ "type": "Feature", "properties": { "name": "小湊", "name:en": "Kominato", "railway": "station", "ele": null, "operator:type": null, "layer": null, "addr:full": null, "addr:city": null, "source": "KSJ2", "name:ja": "小湊", "osm_id": 264186859, "osm_type": "nodes" }, "geometry": { "type": "Point", "coordinates": [ 140.9551558, 40.9298991 ] } },
{ "type": "Feature", "properties": { "name": "向山", "name:en": "Mukaiyama", "railway": "station", "ele": null, "operator:type": null, "layer": null, "addr:full": null, "addr:city": null, "source": "KSJ2", "name:ja": "向山", "osm_id": 264187311, "osm_type": "nodes" }, "geometry": { "type": "Point", "coordinates": [ 141.370572399999986, 40.6298319 ] } },
{ "type": "Feature", "properties": { "name": "清水川", "name:en": "Shimizugawa", "railway": "station", "ele": null, "operator:type": null, "layer": null, "addr:full": null, "addr:city": null, "source": "KSJ2", "name:ja": "清水川", "osm_id": 264187661, "osm_type": "nodes" }, "geometry": { "type": "Point", "coordinates": [ 141.0245353, 40.9218213 ] } },
{ "type": "Feature", "properties": { "name": "上北町", "name:en": "Kamikitacho", "railway": "station", "ele": null, "operator:type": null, "layer": null, "addr:full": null, "addr:city": null, "source": "KSJ2", "name:ja": "上北町", "osm_id": 264188105, "osm_type": "nodes" }, "geometry": { "type": "Point", "coordinates": [ 141.2646972, 40.7329536 ] } },
{ "type": "Feature", "properties": { "name": "千曳", "name:en": "Chibiki", "railway": "station", "ele": null, "operator:type": null, "layer": null, "addr:full": null, "addr:city": null, "source": "KSJ2", "name:ja": "千曳", "osm_id": 264188264, "osm_type": "nodes" }, "geometry": { "type": "Point", "coordinates": [ 141.1532015, 40.8044125 ] } },
{ "type": "Feature", "properties": { "name": "十国峠", "name:en": "Jukkoku Pass", "railway": "station", "ele": null, "operator:type": null, "layer": null, "addr:full": null, "addr:city": null, "source": "KSJ2", "name:ja": "十国峠", "osm_id": 264199403, "osm_type": "nodes" }, "geometry": { "type": "Point", "coordinates": [ 139.040843700000011, 35.1277147 ] } },
{ "type": "Feature", "properties": { "name": "和田河原", "name:en": "Wadagahara", "railway": "station", "ele": null, "operator:type": null, "layer": null, "addr:full": null, "addr:city": null, "source": "KSJ2", "name:ja": "和田河原", "osm_id": 264199894, "osm_type": "nodes" }, "geometry": { "type": "Point", "coordinates": [ 139.1180895, 35.3158517 ] } },
{ "type": "Feature", "properties": { "name": "飯田岡", "name:en": "Iidaoka", "railway": "station", "ele": null, "operator:type": null, "layer": null, "addr:full": null, "addr:city": null, "source": "KSJ2", "name:ja": "飯田岡", "osm_id": 264199929, "osm_type": "nodes" }, "geometry": { "type": "Point", "coordinates": [ 139.1390988, 35.288028 ] } },
{ "type": "Feature", "properties": { "name": "大雄山", "name:en": "Daiyuzan", "railway": "station", "ele": null, "operator:type": null, "layer": null, "addr:full": null, "addr:city": null, "source": "KSJ2", "name:ja": "大雄山", "osm_id": 264199994, "osm_type": "nodes" }, "geometry": { "type": "Point", "coordinates": [ 139.103169900000012, 35.3191857 ] } },
{ "type": "Feature", "properties": { "name": "来宮", "name:en": "Kinomiya", "railway": "station", "ele": null, "operator:type": null, "layer": null, "addr:full": null, "addr:city": null, "source": "KSJ2", "name:ja": "来宮", "osm_id": 264201692, "osm_type": "nodes" }, "geometry": { "type": "Point", "coordinates": [ 139.0655993, 35.0988214 ] } },
{ "type": "Feature", "properties": { "name": "赤川", "name:en": "Akagawa", "railway": "station", "ele": null, "operator:type": null, "layer": null, "addr:full": null, "addr:city": null, "source": "KSJ2", "name:ja": "赤川", "osm_id": 264222084, "osm_type": "nodes" }, "geometry": { "type": "Point", "coordinates": [ 141.2092635, 41.2679458 ] } },
{ "type": "Feature", "properties": { "name": "湯西川温泉", "name:en": "Yunishigawa-Onsen", "railway": "station", "ele": null, "operator:type": null, "layer": null, "addr:full": null, "addr:city": null, "source": "KSJ2", "name:ja": "湯西川温泉", "osm_id": 264224142, "osm_type": "nodes" }, "geometry": { "type": "Point", "coordinates": [ 139.6882913, 36.9295029 ] } },
{ "type": "Feature", "properties": { "name": "龍王峡", "name:en": "Ryuokyo", "railway": "station", "ele": null, "operator:type": null, "layer": null, "addr:full": null, "addr:city": null, "source": "KSJ2", "name:ja": "龍王峡", "osm_id": 264224990, "osm_type": "nodes" }, "geometry": { "type": "Point", "coordinates": [ 139.7185543, 36.8611046 ] } },
{ "type": "Feature", "properties": { "name": "追良瀬", "name:en": "Oirase", "railway": "station", "ele": null, "operator:type": null, "layer": null, "addr:full": null, "addr:city": null, "source": "KSJ2", "name:ja": "追良瀬", "osm_id": 264225488, "osm_type": "nodes" }, "geometry": { "type": "Point", "coordinates": [ 139.970406200000014, 40.6861241 ] } },
{ "type": "Feature", "properties": { "name": "五所川原", "name:en": "Goshogawara", "railway": "station", "ele": null, "operator:type": null, "layer": null, "addr:full": null, "addr:city": null, "source": "KSJ2", "name:ja": "五所川原", "osm_id": 264225886, "osm_type": "nodes" }, "geometry": { "type": "Point", "coordinates": [ 140.448032500000011, 40.8089316 ] } },
{ "type": "Feature", "properties": { "name": "久慈", "name:en": "Kuji", "railway": "station", "ele": null, "operator:type": null, "layer": null, "addr:full": null, "addr:city": null, "source": "KSJ2", "name:ja": "久慈", "osm_id": 264226191, "osm_type": "nodes" }, "geometry": { "type": "Point", "coordinates": [ 141.7708835, 40.1902903 ] } },
{ "type": "Feature", "properties": { "name": "驫木", "name:en": "Todoroki", "railway": "station", "ele": null, "operator:type": null, "layer": null, "addr:full": null, "addr:city": null, "source": "KSJ2", "name:ja": "驫木", "osm_id": 264227359, "osm_type": "nodes" }, "geometry": { "type": "Point", "coordinates": [ 139.983224799999988, 40.7073745 ] } },
{ "type": "Feature", "properties": { "name": "艫作", "name:en": "Henashi", "railway": "station", "ele": null, "operator:type": null, "layer": null, "addr:full": null, "addr:city": null, "source": "KSJ2", "name:ja": "艫作", "osm_id": 264227563, "osm_type": "nodes" }, "geometry": { "type": "Point", "coordinates": [ 139.8645962, 40.6082019 ] } },
{ "type": "Feature", "properties": { "name": "ウェスパ椿山", "name:en": "WeSPa-Tsubakiyama", "railway": "station", "ele": null, "operator:type": null, "layer": null, "addr:full": null, "addr:city": null, "source": "KSJ2", "name:ja": "ウェスパ椿山", "osm_id": 264227648, "osm_type": "nodes" }, "geometry": { "type": "Point", "coordinates": [ 139.871245, 40.5933058 ] } },
{ "type": "Feature", "properties": { "name": "陸奥岩崎", "name:en": "Mutsu-Iwasaki", "railway": "station", "ele": null, "operator:type": null, "layer": null, "addr:full": null, "addr:city": null, "source": "KSJ2", "name:ja": "陸奥岩崎", "osm_id": 264228069, "osm_type": "nodes" }, "geometry": { "type": "Point", "coordinates": [ 139.9244996, 40.5831185 ] } },
{ "type": "Feature", "properties": { "name": "能代", "name:en": "Noshiro", "railway": "station", "ele": null, "operator:type": null, "layer": null, "addr:full": null, "addr:city": null, "source": "KSJ2", "name:ja": "能代", "osm_id": 264229035, "osm_type": "nodes" }, "geometry": { "type": "Point", "coordinates": [ 140.03302020000001, 40.2069658 ] } },
{ "type": "Feature", "properties": { "name": "宮古", "name:en": "Miyako", "railway": "station", "ele": null, "operator:type": null, "layer": null, "addr:full": null, "addr:city": null, "source": "KSJ2", "name:ja": "宮古", "osm_id": 264231502, "osm_type": "nodes" }, "geometry": { "type": "Point", "coordinates": [ 141.9475248, 39.6398721 ] } },
{ "type": "Feature", "properties": { "name": "雫石", "name:en": "Shizukuishi", "railway": "station", "ele": null, "operator:type": null, "layer": null, "addr:full": null, "addr:city": null, "source": "KSJ2", "name:ja": "雫石", "osm_id": 264234167, "osm_type": "nodes" }, "geometry": { "type": "Point", "coordinates": [ 140.9744464, 39.6892709 ] } },
{ "type": "Feature", "properties": { "name": "陸中山田", "name:en": "Rikuchu-Yamada", "railway": "station", "ele": null, "operator:type": null, "layer": null, "addr:full": null, "addr:city": null, "source": "KSJ2", "name:ja": "陸中山田", "osm_id": 264234867, "osm_type": "nodes" }, "geometry": { "type": "Point", "coordinates": [ 141.9507652, 39.4639054 ] } },
{ "type": "Feature", "properties": { "name": "遠野", "name:en": "Tono", "railway": "station", "ele": null, "operator:type": null, "layer": null, "addr:full": null, "addr:city": null, "source": "KSJ2", "name:ja": "遠野", "osm_id": 264254176, "osm_type": "nodes" }, "geometry": { "type": "Point", "coordinates": [ 141.5311486, 39.3324341 ] } },
{ "type": "Feature", "properties": { "name": "新月", "name:en": "Niitsuki", "railway": "station", "ele": null, "operator:type": null, "layer": null, "addr:full": null, "addr:city": null, "source": "KSJ2", "name:ja": "新月", "osm_id": 264266941, "osm_type": "nodes" }, "geometry": { "type": "Point", "coordinates": [ 141.489317, 38.915438 ] } },
{ "type": "Feature", "properties": { "name": "陸前矢作", "name:en": "Rikuzen-Yahagi", "railway": "station", "ele": null, "operator:type": null, "layer": null, "addr:full": null, "addr:city": null, "source": "KSJ2", "name:ja": "陸前矢作", "osm_id": 264268159, "osm_type": "nodes" }, "geometry": { "type": "Point", "coordinates": [ 141.5799988, 39.0228099 ] } },
{ "type": "Feature", "properties": { "name": "矢越", "name:en": "Yagoshi", "railway": "station", "ele": null, "operator:type": null, "layer": null, "addr:full": null, "addr:city": null, "source": "KSJ2", "name:ja": "矢越", "osm_id": 264268636, "osm_type": "nodes" }, "geometry": { "type": "Point", "coordinates": [ 141.429451, 38.9352621 ] } },
{ "type": "Feature", "properties": { "name": "小梨", "name:en": "Konashi", "railway": "station", "ele": null, "operator:type": null, "layer": null, "addr:full": null, "addr:city": null, "source": "KSJ2", "name:ja": "小梨", "osm_id": 264269517, "osm_type": "nodes" }, "geometry": { "type": "Point", "coordinates": [ 141.3844211, 38.9325448 ] } },
{ "type": "Feature", "properties": { "name": "陸前階上", "name:en": "Rikuzen-Hashikami", "railway": "station", "ele": null, "operator:type": null, "layer": null, "addr:full": null, "addr:city": null, "source": "KSJ2", "name:ja": "陸前階上", "osm_id": 264270557, "osm_type": "nodes" }, "geometry": { "type": "Point", "coordinates": [ 141.580537, 38.8375413 ] } },
{ "type": "Feature", "properties": { "name": "陸前横山", "name:en": "Rikuzen-Yokoyama", "railway": "station", "ele": null, "operator:type": null, "layer": null, "addr:full": null, "addr:city": null, "source": "KSJ2", "name:ja": "陸前横山", "osm_id": 264270721, "osm_type": "nodes" }, "geometry": { "type": "Point", "coordinates": [ 141.3537995, 38.6308879 ] } },
{ "type": "Feature", "properties": { "name": "最知", "name:en": "Saichi", "railway": "station", "ele": null, "operator:type": null, "layer": null, "addr:full": null, "addr:city": null, "source": null, "name:ja": "最知", "osm_id": 264270743, "osm_type": "nodes" }, "geometry": { "type": "Point", "coordinates": [ 141.5813908, 38.8534361 ] } },
{ "type": "Feature", "properties": { "name": "清水浜", "name:en": "Shizuhama", "railway": "station", "ele": null, "operator:type": null, "layer": null, "addr:full": null, "addr:city": null, "source": "KSJ2", "name:ja": "清水浜", "osm_id": 264271436, "osm_type": "nodes" }, "geometry": { "type": "Point", "coordinates": [ 141.4896089, 38.6918748 ] } },
{ "type": "Feature", "properties": { "name": "陸前港", "name:en": "Rikuzen-Minato", "railway": "station", "ele": null, "operator:type": null, "layer": null, "addr:full": null, "addr:city": null, "source": "KSJ2", "name:ja": "陸前港", "osm_id": 264271486, "osm_type": "nodes" }, "geometry": { "type": "Point", "coordinates": [ 141.531013800000011, 38.7391817 ] } },
{ "type": "Feature", "properties": { "name": "蔵内", "name:en": "Kurauchi", "railway": "station", "ele": null, "operator:type": null, "layer": null, "addr:full": null, "addr:city": null, "source": "KSJ2", "name:ja": "蔵内", "osm_id": 264271501, "osm_type": "nodes" }, "geometry": { "type": "Point", "coordinates": [ 141.5246606, 38.7536612 ] } },
{ "type": "Feature", "properties": { "name": "不動の沢", "name:en": "Fudōnosawa", "railway": "station", "ele": null, "operator:type": null, "layer": null, "addr:full": null, "addr:city": null, "source": null, "name:ja": "不動の沢", "osm_id": 264271522, "osm_type": "nodes" }, "geometry": { "type": "Point", "coordinates": [ 141.5626248, 38.8984556 ] } },
{ "type": "Feature", "properties": { "name": "上野目", "name:en": "Kaminome", "railway": "station", "ele": null, "operator:type": null, "layer": null, "addr:full": null, "addr:city": null, "source": "KSJ2", "name:ja": "上野目", "osm_id": 264400764, "osm_type": "nodes" }, "geometry": { "type": "Point", "coordinates": [ 140.8593878, 38.6803172 ] } },
{ "type": "Feature", "properties": { "name": "最上", "name:en": "Mogami", "railway": "station", "ele": null, "operator:type": null, "layer": null, "addr:full": null, "addr:city": null, "source": "KSJ2", "name:ja": "最上", "osm_id": 264401575, "osm_type": "nodes" }, "geometry": { "type": "Point", "coordinates": [ 140.517353899999989, 38.7561662 ] } },
{ "type": "Feature", "properties": { "name": "浪江", "name:en": "Namie", "railway": "station", "ele": null, "operator:type": null, "layer": null, "addr:full": null, "addr:city": null, "source": "KSJ2", "name:ja": "浪江", "osm_id": 264404008, "osm_type": "nodes" }, "geometry": { "type": "Point", "coordinates": [ 140.9899695, 37.4920359 ] } },
{ "type": "Feature", "properties": { "name": "犬川", "name:en": "Inukawa", "railway": "station", "ele": null, "operator:type": null, "layer": null, "addr:full": null, "addr:city": null, "source": "KSJ2", "name:ja": null, "osm_id": 264409710, "osm_type": "nodes" }, "geometry": { "type": "Point", "coordinates": [ 140.0521094, 38.0257779 ] } },
{ "type": "Feature", "properties": { "name": "羽前小松", "name:en": "Uzen-Komatsu", "railway": "station", "ele": null, "operator:type": null, "layer": null, "addr:full": null, "addr:city": null, "source": "KSJ2", "name:ja": null, "osm_id": 264409732, "osm_type": "nodes" }, "geometry": { "type": "Point", "coordinates": [ 140.0484104, 38.0045995 ] } },
{ "type": "Feature", "properties": { "name": "羽前松岡", "name:en": "Uzen-Matsuoka", "railway": "station", "ele": null, "operator:type": null, "layer": null, "addr:full": null, "addr:city": null, "source": "KSJ2", "name:ja": null, "osm_id": 264410783, "osm_type": "nodes" }, "geometry": { "type": "Point", "coordinates": [ 139.780331600000011, 38.0453777 ] } },
{ "type": "Feature", "properties": { "name": "宍戸", "name:en": "Shishido", "railway": "station", "ele": null, "operator:type": null, "layer": null, "addr:full": null, "addr:city": null, "source": "KSJ2", "name:ja": "宍戸", "osm_id": 264413243, "osm_type": "nodes" }, "geometry": { "type": "Point", "coordinates": [ 140.288646, 36.3447069 ] } },
{ "type": "Feature", "properties": { "name": "寺泊", "name:en": "Teradomari", "railway": "station", "ele": null, "operator:type": null, "layer": null, "addr:full": null, "addr:city": null, "source": "KSJ2", "name:ja": "寺泊", "osm_id": 264414442, "osm_type": "nodes" }, "geometry": { "type": "Point", "coordinates": [ 138.813824, 37.6203944 ] } },
{ "type": "Feature", "properties": { "name": "刈羽", "name:en": "Kariwa", "railway": "station", "ele": null, "operator:type": null, "layer": null, "addr:full": null, "addr:city": null, "source": "KSJ2", "name:ja": "刈羽", "osm_id": 264414738, "osm_type": "nodes" }, "geometry": { "type": "Point", "coordinates": [ 138.619387, 37.429733 ] } },
{ "type": "Feature", "properties": { "name": "小木ノ城", "name:en": "Oginojo", "railway": "station", "ele": null, "operator:type": null, "layer": null, "addr:full": null, "addr:city": null, "source": "KSJ2", "name:ja": "小木ノ城", "osm_id": 264414839, "osm_type": "nodes" }, "geometry": { "type": "Point", "coordinates": [ 138.704363, 37.515791 ] } },
{ "type": "Feature", "properties": { "name": "東柏崎", "name:en": "Higashi-Kashiwazaki", "railway": "station", "ele": null, "operator:type": null, "layer": null, "addr:full": null, "addr:city": null, "source": "KSJ2", "name:ja": "東柏崎", "osm_id": 264414895, "osm_type": "nodes" }, "geometry": { "type": "Point", "coordinates": [ 138.565692500000011, 37.3735527 ] } },
{ "type": "Feature", "properties": { "name": "礼拝", "name:en": "Raihai", "railway": "station", "ele": null, "operator:type": null, "layer": null, "addr:full": null, "addr:city": null, "source": "KSJ2", "name:ja": "礼拝", "osm_id": 264414991, "osm_type": "nodes" }, "geometry": { "type": "Point", "coordinates": [ 138.663922899999989, 37.4591428 ] } },
{ "type": "Feature", "properties": { "name": "石地", "name:en": "Ishiji", "railway": "station", "ele": null, "operator:type": null, "layer": null, "addr:full": null, "addr:city": null, "source": "KSJ2", "name:ja": "石地", "osm_id": 264415142, "osm_type": "nodes" }, "geometry": { "type": "Point", "coordinates": [ 138.6882856, 37.484104 ] } },
{ "type": "Feature", "properties": { "name": "黒松内", "name:en": "Kuromatsunai", "railway": "station", "ele": null, "operator:type": null, "layer": null, "addr:full": null, "addr:city": null, "source": "KSJ2", "name:ja": "黒松内", "osm_id": 264423617, "osm_type": "nodes" }, "geometry": { "type": "Point", "coordinates": [ 140.3056982, 42.669613 ] } },
{ "type": "Feature", "properties": { "name": "志文", "name:en": "Shibun", "railway": "station", "ele": null, "operator:type": null, "layer": null, "addr:full": null, "addr:city": null, "source": "KSJ2", "name:ja": "志文", "osm_id": 264424024, "osm_type": "nodes" }, "geometry": { "type": "Point", "coordinates": [ 141.744431600000013, 43.1588851 ] } },
{ "type": "Feature", "properties": { "name": "栗丘", "name:en": "Kurioka", "railway": "station", "ele": null, "operator:type": null, "layer": null, "addr:full": null, "addr:city": null, "source": "KSJ2", "name:ja": "栗丘", "osm_id": 264424034, "osm_type": "nodes" }, "geometry": { "type": "Point", "coordinates": [ 141.7441432, 43.0857711 ] } },
{ "type": "Feature", "properties": { "name": "栗沢", "name:en": "Kurisawa", "railway": "station", "ele": null, "operator:type": null, "layer": null, "addr:full": null, "addr:city": null, "source": "KSJ2", "name:ja": "栗沢", "osm_id": 264424151, "osm_type": "nodes" }, "geometry": { "type": "Point", "coordinates": [ 141.739670499999988, 43.1207583 ] } },
{ "type": "Feature", "properties": { "name": "栗山", "name:en": "Kuriyama", "railway": "station", "ele": null, "operator:type": null, "layer": null, "addr:full": null, "addr:city": null, "source": "KSJ2", "name:ja": "栗山", "osm_id": 264424363, "osm_type": "nodes" }, "geometry": { "type": "Point", "coordinates": [ 141.775700199999989, 43.058359 ] } },
{ "type": "Feature", "properties": { "name": "西瑞穂", "name:en": "Nishi-Mizuho", "railway": "station", "ele": null, "operator:type": null, "layer": null, "addr:full": null, "addr:city": null, "source": "KSJ2", "name:ja": "西瑞穂", "osm_id": 264430249, "osm_type": "nodes" }, "geometry": { "type": "Point", "coordinates": [ 142.3821499, 43.7022708 ] } },
{ "type": "Feature", "properties": { "name": "美馬牛", "name:en": "Bibaushi", "railway": "station", "ele": null, "operator:type": null, "layer": null, "addr:full": null, "addr:city": null, "source": "KSJ2", "name:ja": "美馬牛", "osm_id": 264430250, "osm_type": "nodes" }, "geometry": { "type": "Point", "coordinates": [ 142.447376100000014, 43.5376491 ] } },
{ "type": "Feature", "properties": { "name": "千代ヶ岡", "name:en": "Chiyogaoka", "railway": "station", "ele": null, "operator:type": null, "layer": null, "addr:full": null, "addr:city": null, "source": "KSJ2", "name:ja": "千代ヶ岡", "osm_id": 264430271, "osm_type": "nodes" }, "geometry": { "type": "Point", "coordinates": [ 142.451276799999988, 43.6434786 ] } },
{ "type": "Feature", "properties": { "name": "旭川", "name:en": "Asahikawa", "railway": "station", "ele": null, "operator:type": null, "layer": null, "addr:full": null, "addr:city": null, "source": "KSJ2", "name:ja": "旭川", "osm_id": 264430273, "osm_type": "nodes" }, "geometry": { "type": "Point", "coordinates": [ 142.3579263, 43.7627501 ] } },
{ "type": "Feature", "properties": { "name": "西神楽", "name:en": "Nishi-Kagura", "railway": "station", "ele": null, "operator:type": null, "layer": null, "addr:full": null, "addr:city": null, "source": "KSJ2", "name:ja": "西神楽", "osm_id": 264430274, "osm_type": "nodes" }, "geometry": { "type": "Point", "coordinates": [ 142.3935605, 43.6822208 ] } },
{ "type": "Feature", "properties": { "name": "緑が丘", "name:en": "Midorigaoka", "railway": "station", "ele": null, "operator:type": null, "layer": null, "addr:full": null, "addr:city": null, "source": "KSJ2", "name:ja": "緑が丘", "osm_id": 264430305, "osm_type": "nodes" }, "geometry": { "type": "Point", "coordinates": [ 142.365788900000013, 43.7309287 ] } },
{ "type": "Feature", "properties": { "name": "美瑛", "name:en": "Biei", "railway": "station", "ele": null, "operator:type": null, "layer": null, "addr:full": null, "addr:city": null, "source": "KSJ2", "name:ja": "美瑛", "osm_id": 264430307, "osm_type": "nodes" }, "geometry": { "type": "Point", "coordinates": [ 142.4612251, 43.5909601 ] } },
{ "type": "Feature", "properties": { "name": "西御料", "name:en": "Nishigoryo", "railway": "station", "ele": null, "operator:type": null, "layer": null, "addr:full": null, "addr:city": null, "source": "KSJ2", "name:ja": "西御料", "osm_id": 264430313, "osm_type": "nodes" }, "geometry": { "type": "Point", "coordinates": [ 142.3714513, 43.7209639 ] } },
{ "type": "Feature", "properties": { "name": "北美瑛", "name:en": "Kita-Biei", "railway": "station", "ele": null, "operator:type": null, "layer": null, "addr:full": null, "addr:city": null, "source": "KSJ2", "name:ja": "北美瑛", "osm_id": 264430315, "osm_type": "nodes" }, "geometry": { "type": "Point", "coordinates": [ 142.479649, 43.617963 ] } },
{ "type": "Feature", "properties": { "name": "中富良野", "name:en": "Naka-Furano", "railway": "station", "ele": null, "operator:type": null, "layer": null, "addr:full": null, "addr:city": null, "source": "KSJ2", "name:ja": "中富良野", "osm_id": 264430572, "osm_type": "nodes" }, "geometry": { "type": "Point", "coordinates": [ 142.4210386, 43.4058508 ] } },
{ "type": "Feature", "properties": { "name": "西中", "name:en": "Nishinaka", "railway": "station", "ele": null, "operator:type": null, "layer": null, "addr:full": null, "addr:city": null, "source": "KSJ2", "name:ja": "西中", "osm_id": 264430593, "osm_type": "nodes" }, "geometry": { "type": "Point", "coordinates": [ 142.44158, 43.429202 ] } },
{ "type": "Feature", "properties": { "name": "上富良野", "name:en": "Kami-Furano", "railway": "station", "ele": null, "operator:type": null, "layer": null, "addr:full": null, "addr:city": null, "source": "KSJ2", "name:ja": "上富良野", "osm_id": 264430645, "osm_type": "nodes" }, "geometry": { "type": "Point", "coordinates": [ 142.4689582, 43.4632561 ] } },
{ "type": "Feature", "properties": { "name": "厚岸", "name:en": "Akkeshi", "railway": "station", "ele": null, "operator:type": null, "layer": null, "addr:full": null, "addr:city": null, "source": "KSJ2", "name:ja": "厚岸", "osm_id": 264438159, "osm_type": "nodes" }, "geometry": { "type": "Point", "coordinates": [ 144.8412475, 43.0562761 ] } },
{ "type": "Feature", "properties": { "name": "上尾幌", "name:en": "Kami-Oboro", "railway": "station", "ele": null, "operator:type": null, "layer": null, "addr:full": null, "addr:city": null, "source": "KSJ2", "name:ja": "上尾幌", "osm_id": 264438360, "osm_type": "nodes" }, "geometry": { "type": "Point", "coordinates": [ 144.6127401, 43.0330352 ] } },
{ "type": "Feature", "properties": { "name": "根室", "name:en": "Nemuro", "railway": "station", "ele": null, "operator:type": null, "layer": null, "addr:full": null, "addr:city": null, "source": "KSJ2", "name:ja": "根室", "osm_id": 264438566, "osm_type": "nodes" }, "geometry": { "type": "Point", "coordinates": [ 145.5828156, 43.326823 ] } },
{ "type": "Feature", "properties": { "name": "尾幌", "name:en": "Oboro", "railway": "station", "ele": null, "operator:type": null, "layer": null, "addr:full": null, "addr:city": null, "source": "KSJ2", "name:ja": "尾幌", "osm_id": 264438568, "osm_type": "nodes" }, "geometry": { "type": "Point", "coordinates": [ 144.7035861, 43.0185679 ] } },
{ "type": "Feature", "properties": { "name": "昆布盛", "name:en": "Konbumori", "railway": "station", "ele": null, "operator:type": null, "layer": null, "addr:full": null, "addr:city": null, "source": "KSJ2", "name:ja": "昆布盛", "osm_id": 264438569, "osm_type": "nodes" }, "geometry": { "type": "Point", "coordinates": [ 145.542679, 43.2284552 ] } },
{ "type": "Feature", "properties": { "name": "浜中", "name:en": "Hamanaka", "railway": "station", "ele": null, "operator:type": null, "layer": null, "addr:full": null, "addr:city": null, "source": "Bing", "name:ja": "浜中", "osm_id": 264438575, "osm_type": "nodes" }, "geometry": { "type": "Point", "coordinates": [ 145.099718700000011, 43.157585 ] } },
{ "type": "Feature", "properties": { "name": "遠矢", "name:en": "Tōya", "railway": "station", "ele": null, "operator:type": null, "layer": null, "addr:full": null, "addr:city": null, "source": "GSImaps/ort", "name:ja": "遠矢", "osm_id": 264447152, "osm_type": "nodes" }, "geometry": { "type": "Point", "coordinates": [ 144.4582471, 43.0478875 ] } },
{ "type": "Feature", "properties": { "name": "片瀬江ノ島", "name:en": "Katase-Enoshima", "railway": "station", "ele": null, "operator:type": null, "layer": null, "addr:full": null, "addr:city": "藤沢市", "source": "KSJ2", "name:ja": "片瀬江ノ島", "osm_id": 264240233, "osm_type": "nodes" }, "geometry": { "type": "Point", "coordinates": [ 139.483502, 35.308873 ] } },
{ "type": "Feature", "properties": { "name": "立川目", "name:en": "Tatekawame", "railway": "station", "ele": null, "operator:type": null, "layer": null, "addr:full": null, "addr:city": null, "source": "KSJ2", "name:ja": "立川目", "osm_id": 264256562, "osm_type": "nodes" }, "geometry": { "type": "Point", "coordinates": [ 140.9976417, 39.3077084 ] } },
{ "type": "Feature", "properties": { "name": "藤根", "name:en": "Fujine", "railway": "station", "ele": null, "operator:type": null, "layer": null, "addr:full": null, "addr:city": "北上市", "source": "KSJ2", "name:ja": "藤根", "osm_id": 264256598, "osm_type": "nodes" }, "geometry": { "type": "Point", "coordinates": [ 141.040073, 39.3010205 ] } },
{ "type": "Feature", "properties": { "name": "坂町", "name:en": "Sakamachi", "railway": "station", "ele": null, "operator:type": null, "layer": null, "addr:full": null, "addr:city": null, "source": "KSJ2", "name:ja": null, "osm_id": 264260692, "osm_type": "nodes" }, "geometry": { "type": "Point", "coordinates": [ 139.4470522, 38.1203569 ] } },
{ "type": "Feature", "properties": { "name": "折壁", "name:en": "Orikabe", "railway": "station", "ele": null, "operator:type": null, "layer": null, "addr:full": null, "addr:city": null, "source": "KSJ2", "name:ja": "折壁", "osm_id": 264265150, "osm_type": "nodes" }, "geometry": { "type": "Point", "coordinates": [ 141.4523978, 38.9395086 ] } },
{ "type": "Feature", "properties": { "name": "千厩", "name:en": "Senmaya", "railway": "station", "ele": null, "operator:type": null, "layer": null, "addr:full": null, "addr:city": null, "source": "KSJ2", "name:ja": "千厩", "osm_id": 264265353, "osm_type": "nodes" }, "geometry": { "type": "Point", "coordinates": [ 141.345767099999989, 38.924595 ] } },
{ "type": "Feature", "properties": { "name": "本吉", "name:en": "Motoyoshi", "railway": "station", "ele": null, "operator:type": null, "layer": null, "addr:full": null, "addr:city": null, "source": null, "name:ja": "本吉", "osm_id": 264270822, "osm_type": "nodes" }, "geometry": { "type": "Point", "coordinates": [ 141.502652399999988, 38.786442 ] } },
{ "type": "Feature", "properties": { "name": "陸前小泉", "name:en": "Rikuzen-Koizumi", "railway": "station", "ele": null, "operator:type": null, "layer": null, "addr:full": null, "addr:city": null, "source": "KSJ2", "name:ja": "陸前小泉", "osm_id": 264270829, "osm_type": "nodes" }, "geometry": { "type": "Point", "coordinates": [ 141.5093315, 38.7666937 ] } },
{ "type": "Feature", "properties": { "name": "南気仙沼", "name:en": "Minami-Kesennuma", "railway": "station", "ele": null, "operator:type": null, "layer": null, "addr:full": null, "addr:city": null, "source": "KSJ2", "name:ja": "南気仙沼", "osm_id": 264271162, "osm_type": "nodes" }, "geometry": { "type": "Point", "coordinates": [ 141.5760589, 38.8952748 ] } },
{ "type": "Feature", "properties": { "name": "新庄", "name:en": "Shinjo", "railway": "station", "ele": null, "operator:type": null, "layer": null, "addr:full": null, "addr:city": null, "source": "KSJ2", "name:ja": null, "osm_id": 264402336, "osm_type": "nodes" }, "geometry": { "type": "Point", "coordinates": [ 140.30602, 38.7626088 ] } },
{ "type": "Feature", "properties": { "name": "浜吉田", "name:en": "Hamayoshida", "railway": "station", "ele": null, "operator:type": null, "layer": null, "addr:full": null, "addr:city": null, "source": "KSJ2", "name:ja": "浜吉田", "osm_id": 264403020, "osm_type": "nodes" }, "geometry": { "type": "Point", "coordinates": [ 140.889878900000014, 38.0023133 ] } },
{ "type": "Feature", "properties": { "name": "日立木", "name:en": "Nittaki", "railway": "station", "ele": null, "operator:type": null, "layer": null, "addr:full": null, "addr:city": null, "source": "KSJ2", "name:ja": "日立木", "osm_id": 264403278, "osm_type": "nodes" }, "geometry": { "type": "Point", "coordinates": [ 140.934889, 37.7560558 ] } },
{ "type": "Feature", "properties": { "name": "女川", "name:en": "Onagawa", "railway": "station", "ele": null, "operator:type": null, "layer": null, "addr:full": null, "addr:city": null, "source": "KSJ2", "name:ja": "女川", "osm_id": 264404856, "osm_type": "nodes" }, "geometry": { "type": "Point", "coordinates": [ 141.4435933, 38.4468109 ] } },
{ "type": "Feature", "properties": { "name": "涌谷", "name:en": "Wakuya", "railway": "station", "ele": null, "operator:type": null, "layer": null, "addr:full": null, "addr:city": null, "source": "KSJ2", "name:ja": "涌谷", "osm_id": 264405714, "osm_type": "nodes" }, "geometry": { "type": "Point", "coordinates": [ 141.127802800000012, 38.5377483 ] } },
{ "type": "Feature", "properties": { "name": "常陸多賀", "name:en": "Hitachi-Taga", "railway": "station", "ele": null, "operator:type": null, "layer": null, "addr:full": null, "addr:city": null, "source": "GSImaps/ort", "name:ja": "常陸多賀", "osm_id": 264406055, "osm_type": "nodes" }, "geometry": { "type": "Point", "coordinates": [ 140.6325218, 36.5520331 ] } },
{ "type": "Feature", "properties": { "name": "勿来", "name:en": "Nakoso", "railway": "station", "ele": null, "operator:type": null, "layer": null, "addr:full": null, "addr:city": null, "source": "GSImaps/ort", "name:ja": "勿来", "osm_id": 264406680, "osm_type": "nodes" }, "geometry": { "type": "Point", "coordinates": [ 140.7868497, 36.8839897 ] } },
{ "type": "Feature", "properties": { "name": "今泉", "name:en": "Imaizumi", "railway": "station", "ele": null, "operator:type": null, "layer": null, "addr:full": null, "addr:city": null, "source": "KSJ2", "name:ja": "今泉", "osm_id": 264408897, "osm_type": "nodes" }, "geometry": { "type": "Point", "coordinates": [ 140.0442391, 38.0570157 ] } },
{ "type": "Feature", "properties": { "name": "出雲崎", "name:en": "Izumozaki", "railway": "station", "ele": null, "operator:type": null, "layer": null, "addr:full": null, "addr:city": null, "source": "KSJ2", "name:ja": "出雲崎", "osm_id": 264414743, "osm_type": "nodes" }, "geometry": { "type": "Point", "coordinates": [ 138.716067, 37.531531 ] } },
{ "type": "Feature", "properties": { "name": "荒浜", "name:en": "Arahama", "railway": "station", "ele": null, "operator:type": null, "layer": null, "addr:full": null, "addr:city": null, "source": "KSJ2", "name:ja": "荒浜", "osm_id": 264415268, "osm_type": "nodes" }, "geometry": { "type": "Point", "coordinates": [ 138.601967, 37.4048609 ] } },
{ "type": "Feature", "properties": { "name": "深川", "name:en": "Fukagawa", "railway": "station", "ele": null, "operator:type": null, "layer": null, "addr:full": null, "addr:city": null, "source": "KSJ2", "name:ja": "深川", "osm_id": 264420469, "osm_type": "nodes" }, "geometry": { "type": "Point", "coordinates": [ 142.040929299999988, 43.7211231 ] } },
{ "type": "Feature", "properties": { "name": "早来", "name:en": "Hayakita", "railway": "station", "ele": null, "operator:type": null, "layer": null, "addr:full": null, "addr:city": null, "source": "KSJ2", "name:ja": "早来", "osm_id": 264424559, "osm_type": "nodes" }, "geometry": { "type": "Point", "coordinates": [ 141.8141626, 42.7654072 ] } },
{ "type": "Feature", "properties": { "name": "萩野", "name:en": "Hagino", "railway": "station", "ele": null, "operator:type": null, "layer": null, "addr:full": null, "addr:city": null, "source": "KSJ2", "name:ja": "萩野", "osm_id": 264424719, "osm_type": "nodes" }, "geometry": { "type": "Point", "coordinates": [ 141.305886, 42.5212277 ] } },
{ "type": "Feature", "properties": { "name": "古山", "name:en": "Furusan", "railway": "station", "ele": null, "operator:type": null, "layer": null, "addr:full": null, "addr:city": null, "source": "KSJ2", "name:ja": "古山", "osm_id": 264425587, "osm_type": "nodes" }, "geometry": { "type": "Point", "coordinates": [ 141.7940604, 42.9757412 ] } },
{ "type": "Feature", "properties": { "name": "由仁", "name:en": "Yuni", "railway": "station", "ele": null, "operator:type": null, "layer": null, "addr:full": null, "addr:city": null, "source": "KSJ2", "name:ja": "由仁", "osm_id": 264425598, "osm_type": "nodes" }, "geometry": { "type": "Point", "coordinates": [ 141.7859355, 43.0123281 ] } },
{ "type": "Feature", "properties": { "name": "錦岡", "name:en": "Nishikioka", "railway": "station", "ele": null, "operator:type": null, "layer": null, "addr:full": null, "addr:city": null, "source": "KSJ2", "name:ja": "錦岡", "osm_id": 264426398, "osm_type": "nodes" }, "geometry": { "type": "Point", "coordinates": [ 141.4877804, 42.6027192 ] } },
{ "type": "Feature", "properties": { "name": "安平", "name:en": "Abira", "railway": "station", "ele": null, "operator:type": null, "layer": null, "addr:full": null, "addr:city": null, "source": "KSJ2", "name:ja": "安平", "osm_id": 264426752, "osm_type": "nodes" }, "geometry": { "type": "Point", "coordinates": [ 141.8252445, 42.8144816 ] } },
{ "type": "Feature", "properties": { "name": "西聖和", "name:en": "Nishi-Seiwa", "railway": "station", "ele": null, "operator:type": null, "layer": null, "addr:full": null, "addr:city": null, "source": "KSJ2", "name:ja": "西聖和", "osm_id": 264430494, "osm_type": "nodes" }, "geometry": { "type": "Point", "coordinates": [ 142.41457650000001, 43.6691933 ] } },
{ "type": "Feature", "properties": { "name": "神楽岡", "name:en": "Kaguraoka", "railway": "station", "ele": null, "operator:type": null, "layer": null, "addr:full": null, "addr:city": null, "source": "KSJ2", "name:ja": "神楽岡", "osm_id": 264430497, "osm_type": "nodes" }, "geometry": { "type": "Point", "coordinates": [ 142.3583198, 43.7451454 ] } },
{ "type": "Feature", "properties": { "name": "学田", "name:en": "Gakuden", "railway": "station", "ele": null, "operator:type": null, "layer": null, "addr:full": null, "addr:city": null, "source": "KSJ2", "name:ja": "学田", "osm_id": 264430568, "osm_type": "nodes" }, "geometry": { "type": "Point", "coordinates": [ 142.386216, 43.366216 ] } },
{ "type": "Feature", "properties": { "name": "鹿討", "name:en": "Shikauchi", "railway": "station", "ele": null, "operator:type": null, "layer": null, "addr:full": null, "addr:city": null, "source": "KSJ2", "name:ja": "鹿討", "osm_id": 264430569, "osm_type": "nodes" }, "geometry": { "type": "Point", "coordinates": [ 142.404669, 43.387233 ] } },
{ "type": "Feature", "properties": { "name": "富良野", "name:en": "Furano", "railway": "station", "ele": null, "operator:type": null, "layer": null, "addr:full": null, "addr:city": null, "source": "KSJ2", "name:ja": "富良野", "osm_id": 264430570, "osm_type": "nodes" }, "geometry": { "type": "Point", "coordinates": [ 142.391659299999986, 43.3469008 ] } },
{ "type": "Feature", "properties": { "name": "北見", "name:en": "Kitami", "railway": "station", "ele": null, "operator:type": null, "layer": null, "addr:full": null, "addr:city": null, "source": "KSJ2", "name:ja": "北見", "osm_id": 264430646, "osm_type": "nodes" }, "geometry": { "type": "Point", "coordinates": [ 143.8972642, 43.8049279 ] } },
{ "type": "Feature", "properties": { "name": "当麻", "name:en": "Tōma", "railway": "station", "ele": null, "operator:type": null, "layer": null, "addr:full": null, "addr:city": null, "source": "KSJ2", "name:ja": "当麻", "osm_id": 264434925, "osm_type": "nodes" }, "geometry": { "type": "Point", "coordinates": [ 142.51706870000001, 43.8257933 ] } },
{ "type": "Feature", "properties": { "name": "占冠", "name:en": "Shimukappu", "railway": "station", "ele": null, "operator:type": null, "layer": null, "addr:full": null, "addr:city": null, "source": "KSJ2", "name:ja": "占冠", "osm_id": 264435740, "osm_type": "nodes" }, "geometry": { "type": "Point", "coordinates": [ 142.3998683, 42.9926817 ] } },
{ "type": "Feature", "properties": { "name": "姉別", "name:en": "Anebetsu", "railway": "station", "ele": null, "operator:type": null, "layer": null, "addr:full": null, "addr:city": null, "source": "KSJ2", "name:ja": "姉別", "osm_id": 264438160, "osm_type": "nodes" }, "geometry": { "type": "Point", "coordinates": [ 145.1946532, 43.1962512 ] } },
{ "type": "Feature", "properties": { "name": "厚床", "name:en": "Attoko", "railway": "station", "ele": null, "operator:type": null, "layer": null, "addr:full": null, "addr:city": null, "source": "KSJ2", "name:ja": "厚床", "osm_id": 264438359, "osm_type": "nodes" }, "geometry": { "type": "Point", "coordinates": [ 145.2525392, 43.2282676 ] } },
{ "type": "Feature", "properties": { "name": "別保", "name:en": "Beppo", "railway": "station", "ele": null, "operator:type": null, "layer": null, "addr:full": null, "addr:city": null, "source": "KSJ2", "name:ja": "別保", "osm_id": 264438825, "osm_type": "nodes" }, "geometry": { "type": "Point", "coordinates": [ 144.469342399999988, 42.994374 ] } },
{ "type": "Feature", "properties": { "name": "茶内", "name:en": "Chanai", "railway": "station", "ele": null, "operator:type": null, "layer": null, "addr:full": null, "addr:city": null, "source": "KSJ2", "name:ja": "茶内", "osm_id": 264439372, "osm_type": "nodes" }, "geometry": { "type": "Point", "coordinates": [ 145.0281637, 43.1293398 ] } },
{ "type": "Feature", "properties": { "name": "落石", "name:en": "Ochiishi", "railway": "station", "ele": null, "operator:type": null, "layer": null, "addr:full": null, "addr:city": null, "source": "KSJ2", "name:ja": "落石", "osm_id": 264440551, "osm_type": "nodes" }, "geometry": { "type": "Point", "coordinates": [ 145.5195392, 43.1986144 ] } },
{ "type": "Feature", "properties": { "name": "旭川四条", "name:en": "Asahikawa-yojo", "railway": "station", "ele": null, "operator:type": null, "layer": null, "addr:full": null, "addr:city": null, "source": "KSJ2", "name:ja": "旭川四条", "osm_id": 264451482, "osm_type": "nodes" }, "geometry": { "type": "Point", "coordinates": [ 142.3758353, 43.7639244 ] } },
{ "type": "Feature", "properties": { "name": "名寄", "name:en": "Nayoro", "railway": "station", "ele": null, "operator:type": null, "layer": null, "addr:full": null, "addr:city": null, "source": "KSJ2", "name:ja": "名寄", "osm_id": 264452347, "osm_type": "nodes" }, "geometry": { "type": "Point", "coordinates": [ 142.465468, 44.3490259 ] } },
{ "type": "Feature", "properties": { "name": "鵡川", "name:en": "Mukawa", "railway": "station", "ele": null, "operator:type": null, "layer": null, "addr:full": null, "addr:city": null, "source": "KSJ2;Bing", "name:ja": "鵡川", "osm_id": 264454150, "osm_type": "nodes" }, "geometry": { "type": "Point", "coordinates": [ 141.9237092, 42.5789539 ] } },
{ "type": "Feature", "properties": { "name": "北海道医療大学", "name:en": "Hokkaidō-Iryōdaigaku", "railway": "station", "ele": null, "operator:type": null, "layer": null, "addr:full": null, "addr:city": null, "source": "KSJ2", "name:ja": "北海道医療大学", "osm_id": 264455204, "osm_type": "nodes" }, "geometry": { "type": "Point", "coordinates": [ 141.5496789, 43.2307615 ] } },
{ "type": "Feature", "properties": { "name": "あいの里公園", "name:en": "Ainosato-Kōen", "railway": "station", "ele": null, "operator:type": null, "layer": null, "addr:full": null, "addr:city": null, "source": "KSJ2", "name:ja": "あいの里公園", "osm_id": 264455329, "osm_type": "nodes" }, "geometry": { "type": "Point", "coordinates": [ 141.413318, 43.1611369 ] } },
{ "type": "Feature", "properties": { "name": "篠路", "name:en": "Shinoro", "railway": "station", "ele": null, "operator:type": null, "layer": null, "addr:full": null, "addr:city": null, "source": "KSJ2", "name:ja": "篠路", "osm_id": 264455352, "osm_type": "nodes" }, "geometry": { "type": "Point", "coordinates": [ 141.3642544, 43.1451371 ] } },
{ "type": "Feature", "properties": { "name": "当別", "name:en": "Tōbetsu", "railway": "station", "ele": null, "operator:type": null, "layer": null, "addr:full": null, "addr:city": null, "source": "KSJ2", "name:ja": "当別", "osm_id": 264456657, "osm_type": "nodes" }, "geometry": { "type": "Point", "coordinates": [ 141.5142395, 43.2221778 ] } },
{ "type": "Feature", "properties": { "name": "小繋", "name:en": "Kotsunagi", "railway": "station", "ele": null, "operator:type": null, "layer": null, "addr:full": null, "addr:city": null, "source": "KSJ2", "name:ja": "小繋", "osm_id": 264458527, "osm_type": "nodes" }, "geometry": { "type": "Point", "coordinates": [ 141.2607146, 40.1235849 ] } },
{ "type": "Feature", "properties": { "name": "一戸", "name:en": "Ichinohe", "railway": "station", "ele": null, "operator:type": null, "layer": null, "addr:full": null, "addr:city": null, "source": "KSJ2", "name:ja": "一戸", "osm_id": 264458997, "osm_type": "nodes" }, "geometry": { "type": "Point", "coordinates": [ 141.297461, 40.2103856 ] } },
{ "type": "Feature", "properties": { "name": "新里", "name:en": "Nisato", "railway": "station", "ele": null, "operator:type": null, "layer": null, "addr:full": null, "addr:city": null, "source": "KSJ2", "name:ja": "新里", "osm_id": 264462216, "osm_type": "nodes" }, "geometry": { "type": "Point", "coordinates": [ 140.520301100000012, 40.5873575 ] } },
{ "type": "Feature", "properties": { "name": "館田", "name:en": "Tachita", "railway": "station", "ele": null, "operator:type": null, "layer": null, "addr:full": null, "addr:city": null, "source": "KSJ2", "name:ja": "館田", "osm_id": 264462219, "osm_type": "nodes" }, "geometry": { "type": "Point", "coordinates": [ 140.538260799999989, 40.58517 ] } },
{ "type": "Feature", "properties": { "name": "尾上高校前", "name:en": "Onoekōkōmae", "railway": "station", "ele": null, "operator:type": null, "layer": null, "addr:full": null, "addr:city": null, "source": "KSJ2", "name:ja": "尾上高校前", "osm_id": 264462275, "osm_type": "nodes" }, "geometry": { "type": "Point", "coordinates": [ 140.5774322, 40.625486 ] } },
{ "type": "Feature", "properties": { "name": "津軽尾上", "name:en": "Tsugaru-Onoe", "railway": "station", "ele": null, "operator:type": null, "layer": null, "addr:full": null, "addr:city": null, "source": "KSJ2", "name:ja": "津軽尾上", "osm_id": 264462320, "osm_type": "nodes" }, "geometry": { "type": "Point", "coordinates": [ 140.57648660000001, 40.614302 ] } },
{ "type": "Feature", "properties": { "name": "浜川崎", "name:en": "Hama-Kawasaki", "railway": "station", "ele": null, "operator:type": null, "layer": null, "addr:full": null, "addr:city": null, "source": "KSJ2", "name:ja": "浜川崎", "osm_id": 264814072, "osm_type": "nodes" }, "geometry": { "type": "Point", "coordinates": [ 139.7137564, 35.5103253 ] } },
{ "type": "Feature", "properties": { "name": "小淵沢", "name:en": "Kobuchizawa", "railway": "station", "ele": null, "operator:type": null, "layer": null, "addr:full": null, "addr:city": null, "source": "KSJ2", "name:ja": null, "osm_id": 264817302, "osm_type": "nodes" }, "geometry": { "type": "Point", "coordinates": [ 138.3159619, 35.8639177 ] } },
{ "type": "Feature", "properties": { "name": "井野", "name:en": "Ino", "railway": "station", "ele": null, "operator:type": null, "layer": null, "addr:full": null, "addr:city": null, "source": "KSJ2", "name:ja": "井野", "osm_id": 264817858, "osm_type": "nodes" }, "geometry": { "type": "Point", "coordinates": [ 139.0230202, 36.3570844 ] } },
{ "type": "Feature", "properties": { "name": "竜王", "name:en": "Ryuo", "railway": "station", "ele": null, "operator:type": null, "layer": null, "addr:full": null, "addr:city": null, "source": "KSJ2", "name:ja": null, "osm_id": 264818386, "osm_type": "nodes" }, "geometry": { "type": "Point", "coordinates": [ 138.5195034, 35.6688016 ] } },
{ "type": "Feature", "properties": { "name": "塩崎", "name:en": "Shiozaki", "railway": "station", "ele": null, "operator:type": null, "layer": null, "addr:full": null, "addr:city": null, "source": "KSJ2", "name:ja": null, "osm_id": 264818395, "osm_type": "nodes" }, "geometry": { "type": "Point", "coordinates": [ 138.4874941, 35.6878479 ] } },
{ "type": "Feature", "properties": { "name": "新府", "name:en": "Shimpu", "railway": "station", "ele": null, "operator:type": null, "layer": null, "addr:full": null, "addr:city": null, "source": "KSJ2", "name:ja": "新府", "osm_id": 264818413, "osm_type": "nodes" }, "geometry": { "type": "Point", "coordinates": [ 138.4332556, 35.7371514 ] } },
{ "type": "Feature", "properties": { "name": "笹子", "name:en": "Sasago", "railway": "station", "ele": null, "operator:type": null, "layer": null, "addr:full": null, "addr:city": null, "source": "KSJ2", "name:ja": "笹子", "osm_id": 264820798, "osm_type": "nodes" }, "geometry": { "type": "Point", "coordinates": [ 138.8253537, 35.6039397 ] } },
{ "type": "Feature", "properties": { "name": "小町屋", "name:en": "Komachiya", "railway": "station", "ele": null, "operator:type": null, "layer": null, "addr:full": null, "addr:city": null, "source": "KSJ2", "name:ja": "小町屋", "osm_id": 264871376, "osm_type": "nodes" }, "geometry": { "type": "Point", "coordinates": [ 137.9351192, 35.7264286 ] } },
{ "type": "Feature", "properties": { "name": "津軽中里", "name:en": "Tsugaru-Nakasato", "railway": "station", "ele": null, "operator:type": null, "layer": null, "addr:full": null, "addr:city": null, "source": "KSJ2", "name:ja": "津軽中里", "osm_id": 264877488, "osm_type": "nodes" }, "geometry": { "type": "Point", "coordinates": [ 140.4410935, 40.9646016 ] } },
{ "type": "Feature", "properties": { "name": "阿波赤石", "name:en": "Awa-Akaishi", "railway": "station", "ele": null, "operator:type": null, "layer": null, "addr:full": null, "addr:city": null, "source": "KSJ2", "name:ja": null, "osm_id": 265016821, "osm_type": "nodes" }, "geometry": { "type": "Point", "coordinates": [ 134.6057394, 33.982114 ] } },
{ "type": "Feature", "properties": { "name": "地蔵橋", "name:en": "Jizōbashi", "railway": "station", "ele": null, "operator:type": null, "layer": null, "addr:full": null, "addr:city": null, "source": "KSJ2", "name:ja": null, "osm_id": 265017870, "osm_type": "nodes" }, "geometry": { "type": "Point", "coordinates": [ 134.5470403, 34.0267401 ] } },
{ "type": "Feature", "properties": { "name": "文化の森", "name:en": "Bunkanomori", "railway": "station", "ele": null, "operator:type": null, "layer": null, "addr:full": null, "addr:city": null, "source": "KSJ2", "name:ja": "文化の森", "osm_id": 265018746, "osm_type": "nodes" }, "geometry": { "type": "Point", "coordinates": [ 134.543198499999988, 34.0440493 ] } },
{ "type": "Feature", "properties": { "name": "佐久平", "name:en": "Sakudaira", "railway": "station", "ele": null, "operator:type": null, "layer": null, "addr:full": null, "addr:city": null, "source": "KSJ2", "name:ja": "佐久平", "osm_id": 265040118, "osm_type": "nodes" }, "geometry": { "type": "Point", "coordinates": [ 138.4643868, 36.2781104 ] } },
{ "type": "Feature", "properties": { "name": "東一身田", "name:en": "Higashi-Ishinden", "railway": "station", "ele": null, "operator:type": null, "layer": null, "addr:full": null, "addr:city": null, "source": "KSJ2", "name:ja": "東一身田", "osm_id": 265041674, "osm_type": "nodes" }, "geometry": { "type": "Point", "coordinates": [ 136.5121073, 34.7586349 ] } },
{ "type": "Feature", "properties": { "name": "大府", "name:en": "Ōbu", "railway": "station", "ele": null, "operator:type": null, "layer": null, "addr:full": null, "addr:city": null, "source": null, "name:ja": "大府", "osm_id": 265043907, "osm_type": "nodes" }, "geometry": { "type": "Point", "coordinates": [ 136.96176, 35.008769 ] } },
{ "type": "Feature", "properties": { "name": "勇払", "name:en": "Yufutsu", "railway": "station", "ele": null, "operator:type": null, "layer": null, "addr:full": null, "addr:city": null, "source": "KSJ2", "name:ja": "勇払", "osm_id": 264453742, "osm_type": "nodes" }, "geometry": { "type": "Point", "coordinates": [ 141.7279395, 42.632583 ] } },
{ "type": "Feature", "properties": { "name": "浜厚真", "name:en": "Hama-Atsuma", "railway": "station", "ele": null, "operator:type": null, "layer": null, "addr:full": null, "addr:city": null, "source": "KSJ2", "name:ja": "浜厚真", "osm_id": 264454075, "osm_type": "nodes" }, "geometry": { "type": "Point", "coordinates": [ 141.8365978, 42.6068821 ] } },
{ "type": "Feature", "properties": { "name": "あいの里教育大", "name:en": "Ainosato-Kyōikudai", "railway": "station", "ele": null, "operator:type": null, "layer": null, "addr:full": null, "addr:city": null, "source": "KSJ2", "name:ja": "あいの里教育大", "osm_id": 264455147, "osm_type": "nodes" }, "geometry": { "type": "Point", "coordinates": [ 141.3985947, 43.155162 ] } },
{ "type": "Feature", "properties": { "name": "拓北", "name:en": "Takuhoku", "railway": "station", "ele": null, "operator:type": null, "layer": null, "addr:full": null, "addr:city": null, "source": "KSJ2", "name:ja": "拓北", "osm_id": 264455516, "osm_type": "nodes" }, "geometry": { "type": "Point", "coordinates": [ 141.38122, 43.1554863 ] } },
{ "type": "Feature", "properties": { "name": "境松", "name:en": "Sakaimatsu", "railway": "station", "ele": null, "operator:type": null, "layer": null, "addr:full": null, "addr:city": null, "source": "KSJ2", "name:ja": "境松", "osm_id": 264462137, "osm_type": "nodes" }, "geometry": { "type": "Point", "coordinates": [ 140.5760103, 40.6491481 ] } },
{ "type": "Feature", "properties": { "name": "運動公園前", "name:en": "Undōkōenmae", "railway": "station", "ele": null, "operator:type": null, "layer": null, "addr:full": null, "addr:city": null, "source": "KSJ2", "name:ja": "運動公園前", "osm_id": 264462141, "osm_type": "nodes" }, "geometry": { "type": "Point", "coordinates": [ 140.503357200000011, 40.5894754 ] } },
{ "type": "Feature", "properties": { "name": "平賀", "name:en": "Hiraka", "railway": "station", "ele": null, "operator:type": null, "layer": null, "addr:full": null, "addr:city": null, "source": "KSJ2", "name:ja": "平賀", "osm_id": 264462177, "osm_type": "nodes" }, "geometry": { "type": "Point", "coordinates": [ 140.561062600000014, 40.5850906 ] } },
{ "type": "Feature", "properties": { "name": "矢作", "name:en": "Yahagi", "railway": "station", "ele": null, "operator:type": null, "layer": null, "addr:full": null, "addr:city": null, "source": "KSJ2", "name:ja": "矢作", "osm_id": 264802433, "osm_type": "nodes" }, "geometry": { "type": "Point", "coordinates": [ 138.851307, 37.690813 ] } },
{ "type": "Feature", "properties": { "name": "西国立", "name:en": "Nishi-Kunitachi", "railway": "station", "ele": null, "operator:type": null, "layer": null, "addr:full": null, "addr:city": null, "source": "KSJ2", "name:ja": "西国立", "osm_id": 264813299, "osm_type": "nodes" }, "geometry": { "type": "Point", "coordinates": [ 139.424055900000013, 35.6934726 ] } },
{ "type": "Feature", "properties": { "name": "登戸", "name:en": "Noborito", "railway": "station", "ele": null, "operator:type": null, "layer": null, "addr:full": null, "addr:city": null, "source": "KSJ2", "name:ja": "登戸", "osm_id": 264813889, "osm_type": "nodes" }, "geometry": { "type": "Point", "coordinates": [ 139.570006, 35.6208193 ] } },
{ "type": "Feature", "properties": { "name": "府中本町", "name:en": "Fuchu-Hommachi", "railway": "station", "ele": null, "operator:type": null, "layer": null, "addr:full": null, "addr:city": null, "source": "KSJ2", "name:ja": "府中本町", "osm_id": 264813956, "osm_type": "nodes" }, "geometry": { "type": "Point", "coordinates": [ 139.4771038, 35.6661053 ] } },
{ "type": "Feature", "properties": { "name": "川崎新町", "name:en": "Kawasaki-Shimmachi", "railway": "station", "ele": null, "operator:type": null, "layer": null, "addr:full": null, "addr:city": null, "source": "KSJ2", "name:ja": "川崎新町", "osm_id": 264814064, "osm_type": "nodes" }, "geometry": { "type": "Point", "coordinates": [ 139.699181900000013, 35.5182574 ] } },
{ "type": "Feature", "properties": { "name": "伊那福岡", "name:en": "Ina-Fukuoka", "railway": "station", "ele": null, "operator:type": null, "layer": null, "addr:full": null, "addr:city": null, "source": "KSJ2", "name:ja": "伊那福岡", "osm_id": 264864917, "osm_type": "nodes" }, "geometry": { "type": "Point", "coordinates": [ 137.933957099999986, 35.7125535 ] } },
{ "type": "Feature", "properties": { "name": "中井侍", "name:en": "Nakaisamurai", "railway": "station", "ele": null, "operator:type": null, "layer": null, "addr:full": null, "addr:city": null, "source": "KSJ2", "name:ja": "中井侍", "osm_id": 264869196, "osm_type": "nodes" }, "geometry": { "type": "Point", "coordinates": [ 137.8348073, 35.2358605 ] } },
{ "type": "Feature", "properties": { "name": "切石", "name:en": "Kiriishi", "railway": "station", "ele": null, "operator:type": null, "layer": null, "addr:full": null, "addr:city": null, "source": "KSJ2", "name:ja": "切石", "osm_id": 264869658, "osm_type": "nodes" }, "geometry": { "type": "Point", "coordinates": [ 137.80919750000001, 35.5126482 ] } },
{ "type": "Feature", "properties": { "name": "上桧木内", "name:en": "Kamihinokinai", "railway": "station", "ele": null, "operator:type": null, "layer": null, "addr:full": null, "addr:city": null, "source": "KSJ2", "name:ja": "上桧木内", "osm_id": 264870023, "osm_type": "nodes" }, "geometry": { "type": "Point", "coordinates": [ 140.5826078, 39.8180212 ] } },
{ "type": "Feature", "properties": { "name": "伊那小沢", "name:en": "Inakozawa", "railway": "station", "ele": null, "operator:type": null, "layer": null, "addr:full": null, "addr:city": null, "source": "KSJ2", "name:ja": "伊那小沢", "osm_id": 264871763, "osm_type": "nodes" }, "geometry": { "type": "Point", "coordinates": [ 137.8348349, 35.25404 ] } },
{ "type": "Feature", "properties": { "name": "茶臼山", "name:en": "Chausuyama", "railway": "station", "ele": null, "operator:type": null, "layer": null, "addr:full": null, "addr:city": null, "source": "KSJ2", "name:ja": null, "osm_id": 264875703, "osm_type": "nodes" }, "geometry": { "type": "Point", "coordinates": [ 137.5142196, 34.9102392 ] } },
{ "type": "Feature", "properties": { "name": "嘉瀬", "name:en": "Kase", "railway": "station", "ele": null, "operator:type": null, "layer": null, "addr:full": null, "addr:city": null, "source": "KSJ2", "name:ja": "嘉瀬", "osm_id": 264877568, "osm_type": "nodes" }, "geometry": { "type": "Point", "coordinates": [ 140.4691368, 40.8813162 ] } },
{ "type": "Feature", "properties": { "name": "贄川", "name:en": "Niekawa", "railway": "station", "ele": null, "operator:type": null, "layer": null, "addr:full": null, "addr:city": null, "source": "KSJ2", "name:ja": null, "osm_id": 264877844, "osm_type": "nodes" }, "geometry": { "type": "Point", "coordinates": [ 137.8607633, 36.0140897 ] } },
{ "type": "Feature", "properties": { "name": "中軽井沢", "name:en": "Naka-Karuizawa", "railway": "station", "ele": null, "operator:type": null, "layer": null, "addr:full": null, "addr:city": null, "source": "KSJ2", "name:ja": "中軽井沢", "osm_id": 265001538, "osm_type": "nodes" }, "geometry": { "type": "Point", "coordinates": [ 138.5925183, 36.3475761 ] } },
{ "type": "Feature", "properties": { "name": "二軒屋", "name:en": "Nikenya", "railway": "station", "ele": null, "operator:type": null, "layer": null, "addr:full": null, "addr:city": null, "source": "KSJ2", "name:ja": "二軒屋", "osm_id": 265018777, "osm_type": "nodes" }, "geometry": { "type": "Point", "coordinates": [ 134.5467037, 34.0545653 ] } },
{ "type": "Feature", "properties": { "name": "大泊", "name:en": "Odomari", "railway": "station", "ele": null, "operator:type": null, "layer": null, "addr:full": null, "addr:city": null, "source": "KSJ2", "name:ja": "大泊", "osm_id": 265824048, "osm_type": "nodes" }, "geometry": { "type": "Point", "coordinates": [ 136.118073, 33.9021966 ] } },
{ "type": "Feature", "properties": { "name": "波田須", "name:en": "Hadasu", "railway": "station", "ele": null, "operator:type": null, "layer": null, "addr:full": null, "addr:city": null, "source": "KSJ2", "name:ja": "波田須", "osm_id": 265824176, "osm_type": "nodes" }, "geometry": { "type": "Point", "coordinates": [ 136.137623, 33.909951 ] } },
{ "type": "Feature", "properties": { "name": "尾鷲", "name:en": "Owase", "railway": "station", "ele": null, "operator:type": null, "layer": null, "addr:full": null, "addr:city": null, "source": "KSJ2", "name:ja": "尾鷲", "osm_id": 265824187, "osm_type": "nodes" }, "geometry": { "type": "Point", "coordinates": [ 136.1901497, 34.0747359 ] } },
{ "type": "Feature", "properties": { "name": "鵜殿", "name:en": "Udono", "railway": "station", "ele": null, "operator:type": null, "layer": null, "addr:full": null, "addr:city": null, "source": "KSJ2", "name:ja": "鵜殿", "osm_id": 265825960, "osm_type": "nodes" }, "geometry": { "type": "Point", "coordinates": [ 136.015952, 33.7370321 ] } },