{
  "IRいしかわ鉄道": {
    "IRいしかわ鉄道線": [
      {
        "name": "倶利伽羅",
        "code": "001986",
        "group": "001986",
        "lat": 36.67248333333333,
        "lon": 136.79160666666667
      },
      {
        "name": "東金沢",
        "code": "002076",
        "group": "002076",
        "lat": 36.593450000000004,
        "lon": 136.66948
      },
      {
        "name": "森本",
        "code": "002061",
        "group": "002061",
        "lat": 36.61219,
        "lon": 136.68955666666668
      },
      {
        "name": "津幡",
        "code": "002011",
        "group": "002010",
        "lat": 36.65788,
        "lon": 136.73073499999998
      },
      {
        "name": "金沢",
        "code": "002093",
        "group": "002092",
        "lat": 36.57826333333333,
        "lon": 136.64781000000002
      }
    ]
  },
  "WILLER　TRAINS": {
    "宮津線": [
      {
        "name": "かぶと山",
        "code": "004208",
        "group": "004208",
        "lat": 35.606790000000004,
        "lon": 134.91992499999998
      },
      {
        "name": "コウノトリの郷",
        "code": "004355",
        "group": "004355",
        "lat": 35.552835,
        "lon": 134.83551
      },
      {
        "name": "与謝野",
        "code": "004390",
        "group": "004390",
        "lat": 35.543465,
        "lon": 135.1265
      },
      {
        "name": "丹後由良",
        "code": "004469",
        "group": "004469",
        "lat": 35.51580333333333,
        "lon": 135.27948
      },
      {
        "name": "丹後神崎",
        "code": "004507",
        "group": "004507",
        "lat": 35.50653,
        "lon": 135.293675
      },
      {
        "name": "久美浜",
        "code": "004231",
        "group": "004231",
        "lat": 35.60227,
        "lon": 134.89499
      },
      {
        "name": "京丹後大宮",
        "code": "004291",
        "group": "004291",
        "lat": 35.579665,
        "lon": 135.093965
      },
      {
        "name": "四所",
        "code": "004689",
        "group": "004689",
        "lat": 35.44619333333333,
        "lon": 135.29040166666667
      },
      {
        "name": "夕日ヶ浦木津温泉",
        "code": "003974",
        "group": "003974",
        "lat": 35.650016666666666,
        "lon": 134.97248000000002
      },
      {
        "name": "天橋立",
        "code": "004343",
        "group": "004343",
        "lat": 35.557375,
        "lon": 135.182875
      },
      {
        "name": "宮津",
        "code": "004419",
        "group": "004419",
        "lat": 35.534440000000004,
        "lon": 135.199975
      },
      {
        "name": "小天橋",
        "code": "004088",
        "group": "004088",
        "lat": 35.630120000000005,
        "lon": 134.92847999999998
      },
      {
        "name": "岩滝口",
        "code": "004363",
        "group": "004363",
        "lat": 35.550345,
        "lon": 135.15133
      },
      {
        "name": "峰山",
        "code": "004111",
        "group": "004111",
        "lat": 35.625965,
        "lon": 135.07213000000002
      },
      {
        "name": "東雲",
        "code": "004606",
        "group": "004606",
        "lat": 35.47501,
        "lon": 135.284945
      },
      {
        "name": "栗田",
        "code": "004389",
        "group": "004389",
        "lat": 35.543679999999995,
        "lon": 135.235295
      },
      {
        "name": "網野",
        "code": "003865",
        "group": "003865",
        "lat": 35.667323333333336,
        "lon": 135.02559333333335
      },
      {
        "name": "西舞鶴",
        "code": "004706",
        "group": "004705",
        "lat": 35.441855,
        "lon": 135.33056249999998
      },
      {
        "name": "豊岡",
        "code": "004383",
        "group": "004383",
        "lat": 35.544934999999995,
        "lon": 134.81332500000002
      }
    ],
    "宮福線": [
      {
        "name": "下天津",
        "code": "004948",
        "group": "004948",
        "lat": 35.35930333333334,
        "lon": 135.11155
      },
      {
        "name": "二俣",
        "code": "004778",
        "group": "004778",
        "lat": 35.413205,
        "lon": 135.154495
      },
      {
        "name": "公庄",
        "code": "004911",
        "group": "004911",
        "lat": 35.37187,
        "lon": 135.129255
      },
      {
        "name": "喜多",
        "code": "004492",
        "group": "004492",
        "lat": 35.509215,
        "lon": 135.18777
      },
      {
        "name": "大江",
        "code": "004865",
        "group": "004865",
        "lat": 35.388785,
        "lon": 135.147505
      },
      {
        "name": "大江山口内宮",
        "code": "004728",
        "group": "004728",
        "lat": 35.432165,
        "lon": 135.15840500000002
      },
      {
        "name": "大江高校前",
        "code": "004845",
        "group": "004845",
        "lat": 35.39577666666666,
        "lon": 135.15273666666667
      },
      {
        "name": "宮村",
        "code": "004447",
        "group": "004447",
        "lat": 35.523345,
        "lon": 135.192245
      },
      {
        "name": "宮津",
        "code": "004420",
        "group": "004419",
        "lat": 35.534440000000004,
        "lon": 135.199975
      },
      {
        "name": "牧",
        "code": "005000",
        "group": "005000",
        "lat": 35.337815,
        "lon": 135.101675
      },
      {
        "name": "福知山",
        "code": "005122",
        "group": "005124",
        "lat": 35.296994999999995,
        "lon": 135.11767
      },
      {
        "name": "福知山市民病院口",
        "code": "005097",
        "group": "005097",
        "lat": 35.30658,
        "lon": 135.108635
      },
      {
        "name": "荒河かしの木台",
        "code": "005054",
        "group": "005054",
        "lat": 35.319320000000005,
        "lon": 135.105775
      },
      {
        "name": "辛皮",
        "code": "004645",
        "group": "004645",
        "lat": 35.46257,
        "lon": 135.17331666666666
      }
    ]
  },
  "あいの風とやま鉄道": {
    "あいの風とやま鉄道線": [
      {
        "name": "倶利伽羅",
        "code": "001987",
        "group": "001986",
        "lat": 36.67248333333333,
        "lon": 136.79160666666667
      },
      {
        "name": "入善",
        "code": "001714",
        "group": "001714",
        "lat": 36.94128,
        "lon": 137.4991
      },
      {
        "name": "呉羽",
        "code": "001901",
        "group": "001901",
        "lat": 36.71888,
        "lon": 137.164875
      },
      {
        "name": "富山",
        "code": "001926",
        "group": "001925",
        "lat": 36.70169,
        "lon": 137.21321
      },
      {
        "name": "小杉",
        "code": "001896",
        "group": "001896",
        "lat": 36.72074,
        "lon": 137.092575
      },
      {
        "name": "市振",
        "code": "001698",
        "group": "001698",
        "lat": 36.980445,
        "lon": 137.650485
      },
      {
        "name": "新富山口",
        "code": "001898",
        "group": "001898",
        "lat": 36.719574699999995,
        "lon": 137.240399325
      },
      {
        "name": "東富山",
        "code": "001872",
        "group": "001872",
        "lat": 36.74107,
        "lon": 137.248915
      },
      {
        "name": "東滑川",
        "code": "001804",
        "group": "001804",
        "lat": 36.787975,
        "lon": 137.37786
      },
      {
        "name": "水橋",
        "code": "001867",
        "group": "001867",
        "lat": 36.743445,
        "lon": 137.29843
      },
      {
        "name": "泊",
        "code": "001711",
        "group": "001711",
        "lat": 36.95192,
        "lon": 137.55601000000001
      },
      {
        "name": "滑川",
        "code": "001827",
        "group": "001827",
        "lat": 36.76946,
        "lon": 137.34888999999998
      },
      {
        "name": "生地",
        "code": "001729",
        "group": "001729",
        "lat": 36.90578,
        "lon": 137.42658
      },
      {
        "name": "石動",
        "code": "001988",
        "group": "001988",
        "lat": 36.67244,
        "lon": 136.86564666666666
      },
      {
        "name": "福岡",
        "code": "001911",
        "group": "001911",
        "lat": 36.708285000000004,
        "lon": 136.932075
      },
      {
        "name": "西入善",
        "code": "001722",
        "group": "001722",
        "lat": 36.930139999999994,
        "lon": 137.45928500000002
      },
      {
        "name": "西高岡",
        "code": "001891",
        "group": "001891",
        "lat": 36.724284999999995,
        "lon": 136.96527500000002
      },
      {
        "name": "越中大門",
        "code": "001881",
        "group": "001881",
        "lat": 36.733924,
        "lon": 137.05575799999997
      },
      {
        "name": "越中宮崎",
        "code": "001704",
        "group": "001704",
        "lat": 36.973875,
        "lon": 137.59949999999998
      },
      {
        "name": "高岡",
        "code": "001871",
        "group": "001873",
        "lat": 36.741202727272736,
        "lon": 137.01473545454544
      },
      {
        "name": "高岡やぶなみ",
        "code": "001876",
        "group": "001876",
        "lat": 36.737234795000006,
        "lon": 136.98870539
      },
      {
        "name": "魚津",
        "code": "001778",
        "group": "001778",
        "lat": 36.82647,
        "lon": 137.405705
      },
      {
        "name": "黒部",
        "code": "001753",
        "group": "001753",
        "lat": 36.86954,
        "lon": 137.434405
      }
    ]
  },
  "いすみ鉄道": {
    "いすみ線": [
      {
        "name": "上総中川",
        "code": "005154",
        "group": "005154",
        "lat": 35.282705,
        "lon": 140.28055999999998
      },
      {
        "name": "上総中野",
        "code": "005239",
        "group": "005238",
        "lat": 35.25004,
        "lon": 140.199595
      },
      {
        "name": "上総東",
        "code": "005198",
        "group": "005198",
        "lat": 35.26329,
        "lon": 140.344905
      },
      {
        "name": "久我原",
        "code": "005236",
        "group": "005236",
        "lat": 35.25022,
        "lon": 140.24766499999998
      },
      {
        "name": "国吉",
        "code": "005160",
        "group": "005160",
        "lat": 35.280424999999994,
        "lon": 140.31399
      },
      {
        "name": "城見ヶ丘",
        "code": "005136",
        "group": "005136",
        "lat": 35.29172,
        "lon": 140.252465
      },
      {
        "name": "大原",
        "code": "005230",
        "group": "005229",
        "lat": 35.25084666666667,
        "lon": 140.39103333333333
      },
      {
        "name": "大多喜",
        "code": "005145",
        "group": "005145",
        "lat": 35.286535,
        "lon": 140.24383999999998
      },
      {
        "name": "小谷松",
        "code": "005182",
        "group": "005182",
        "lat": 35.268975,
        "lon": 140.25104
      },
      {
        "name": "新田野",
        "code": "005169",
        "group": "005169",
        "lat": 35.27599,
        "lon": 140.328525
      },
      {
        "name": "東総元",
        "code": "005207",
        "group": "005207",
        "lat": 35.259445,
        "lon": 140.24763
      },
      {
        "name": "総元",
        "code": "005257",
        "group": "005257",
        "lat": 35.24057,
        "lon": 140.24036
      },
      {
        "name": "西大原",
        "code": "005204",
        "group": "005204",
        "lat": 35.260515,
        "lon": 140.377975
      },
      {
        "name": "西畑",
        "code": "005233",
        "group": "005233",
        "lat": 35.250526666666666,
        "lon": 140.21517666666668
      }
    ]
  },
  "えちごトキめき鉄道": {
    "妙高はねうまライン": [
      {
        "name": "上越妙高",
        "code": "001645",
        "group": "001643",
        "lat": 37.08134801,
        "lon": 138.24807163999998
      },
      {
        "name": "二本木",
        "code": "001691",
        "group": "001691",
        "lat": 36.989746,
        "lon": 138.23271400000002
      },
      {
        "name": "北新井",
        "code": "001662",
        "group": "001662",
        "lat": 37.0529,
        "lon": 138.25770999999997
      },
      {
        "name": "南高田",
        "code": "001637",
        "group": "001637",
        "lat": 37.096795,
        "lon": 138.243035
      },
      {
        "name": "妙高高原",
        "code": "001747",
        "group": "001746",
        "lat": 36.872305,
        "lon": 138.21218499999998
      },
      {
        "name": "新井",
        "code": "001675",
        "group": "001675",
        "lat": 37.026735,
        "lon": 138.25563
      },
      {
        "name": "春日山",
        "code": "001613",
        "group": "001613",
        "lat": 37.147980000000004,
        "lon": 138.23505
      },
      {
        "name": "直江津",
        "code": "001602",
        "group": "001600",
        "lat": 37.17014,
        "lon": 138.242035
      },
      {
        "name": "関山",
        "code": "001719",
        "group": "001719",
        "lat": 36.93251,
        "lon": 138.22678
      },
      {
        "name": "高田",
        "code": "001632",
        "group": "001632",
        "lat": 37.11462,
        "lon": 138.241965
      }
    ],
    "日本海ひすいライン": [
      {
        "name": "えちご押上ひすい海岸",
        "code": "001663",
        "group": "001663",
        "lat": 37.048243580000005,
        "lon": 137.878404485
      },
      {
        "name": "名立",
        "code": "001610",
        "group": "001610",
        "lat": 37.155694999999994,
        "lon": 138.09233749999999
      },
      {
        "name": "市振",
        "code": "001699",
        "group": "001698",
        "lat": 36.980445,
        "lon": 137.650485
      },
      {
        "name": "有間川",
        "code": "001605",
        "group": "001605",
        "lat": 37.16332,
        "lon": 138.136665
      },
      {
        "name": "梶屋敷",
        "code": "001659",
        "group": "001659",
        "lat": 37.056580000000004,
        "lon": 137.905685
      },
      {
        "name": "浦本",
        "code": "001652",
        "group": "001652",
        "lat": 37.07418666666666,
        "lon": 137.93982666666668
      },
      {
        "name": "直江津",
        "code": "001601",
        "group": "001600",
        "lat": 37.17014,
        "lon": 138.242035
      },
      {
        "name": "筒石",
        "code": "001626",
        "group": "001626",
        "lat": 37.127325,
        "lon": 138.060575
      },
      {
        "name": "糸魚川",
        "code": "001667",
        "group": "001666",
        "lat": 37.043805,
        "lon": 137.86258
      },
      {
        "name": "能生",
        "code": "001639",
        "group": "001639",
        "lat": 37.096012,
        "lon": 137.988472
      },
      {
        "name": "親不知",
        "code": "001685",
        "group": "001685",
        "lat": 37.00685,
        "lon": 137.73802999999998
      },
      {
        "name": "谷浜",
        "code": "001606",
        "group": "001606",
        "lat": 37.16239,
        "lon": 138.173915
      },
      {
        "name": "青海",
        "code": "001678",
        "group": "001678",
        "lat": 37.0225,
        "lon": 137.795815
      }
    ]
  },
  "えちぜん鉄道": {
    "三国芦原線": [
      {
        "name": "あわら湯のまち",
        "code": "002519",
        "group": "002519",
        "lat": 36.22296,
        "lon": 136.1938
      },
      {
        "name": "まつもと町屋",
        "code": "002662",
        "group": "002662",
        "lat": 36.076964555,
        "lon": 136.228861575
      },
      {
        "name": "三国",
        "code": "002526",
        "group": "002526",
        "lat": 36.21692,
        "lon": 136.14995
      },
      {
        "name": "三国港",
        "code": "002522",
        "group": "002522",
        "lat": 36.220095,
        "lon": 136.140355
      },
      {
        "name": "三国神社",
        "code": "002530",
        "group": "002530",
        "lat": 36.214885,
        "lon": 136.15833500000002
      },
      {
        "name": "下兵庫こうふく",
        "code": "002567",
        "group": "002567",
        "lat": 36.17012,
        "lon": 136.2025933333333
      },
      {
        "name": "中角",
        "code": "002630",
        "group": "002630",
        "lat": 36.101119999999995,
        "lon": 136.204445
      },
      {
        "name": "八ツ島",
        "code": "002651",
        "group": "002651",
        "lat": 36.08619,
        "lon": 136.205885
      },
      {
        "name": "大関",
        "code": "002556",
        "group": "002556",
        "lat": 36.18663,
        "lon": 136.20378
      },
      {
        "name": "太郎丸エンゼルランド",
        "code": "002599",
        "group": "002599",
        "lat": 36.131335,
        "lon": 136.20569
      },
      {
        "name": "新田塚",
        "code": "002638",
        "group": "002638",
        "lat": 36.092575,
        "lon": 136.20528000000002
      },
      {
        "name": "日華化学前",
        "code": "002657",
        "group": "002657",
        "lat": 36.08077666666667,
        "lon": 136.20647999999997
      },
      {
        "name": "本荘",
        "code": "002542",
        "group": "002542",
        "lat": 36.204625,
        "lon": 136.20316000000003
      },
      {
        "name": "水居",
        "code": "002524",
        "group": "002524",
        "lat": 36.219210000000004,
        "lon": 136.172305
      },
      {
        "name": "田原町",
        "code": "002669",
        "group": "002669",
        "lat": 36.07499,
        "lon": 136.21764000000002
      },
      {
        "name": "番田",
        "code": "002533",
        "group": "002533",
        "lat": 36.21253,
        "lon": 136.20252
      },
      {
        "name": "福井口",
        "code": "002677",
        "group": "002677",
        "lat": 36.071495,
        "lon": 136.2334
      },
      {
        "name": "福大前西福井",
        "code": "002671",
        "group": "002671",
        "lat": 36.074405,
        "lon": 136.21013
      },
      {
        "name": "西別院",
        "code": "002668",
        "group": "002668",
        "lat": 36.075255,
        "lon": 136.22298999999998
      },
      {
        "name": "西春江ハートピア",
        "code": "002591",
        "group": "002591",
        "lat": 36.1389,
        "lon": 136.20622
      },
      {
        "name": "西長田ゆりの里",
        "code": "002575",
        "group": "002575",
        "lat": 36.15358500000001,
        "lon": 136.206495
      },
      {
        "name": "鷲塚針原",
        "code": "002609",
        "group": "002609",
        "lat": 36.120239999999995,
        "lon": 136.20481
      }
    ],
    "勝山永平寺線": [
      {
        "name": "下志比",
        "code": "002641",
        "group": "002641",
        "lat": 36.09063,
        "lon": 136.336405
      },
      {
        "name": "保田",
        "code": "002679",
        "group": "002679",
        "lat": 36.06992,
        "lon": 136.45165333333333
      },
      {
        "name": "光明寺",
        "code": "002645",
        "group": "002645",
        "lat": 36.08842,
        "lon": 136.34455
      },
      {
        "name": "勝山",
        "code": "002697",
        "group": "002697",
        "lat": 36.05592333333333,
        "lon": 136.49220000000003
      },
      {
        "name": "小舟渡",
        "code": "002664",
        "group": "002664",
        "lat": 36.07553333333333,
        "lon": 136.43405333333334
      },
      {
        "name": "山王",
        "code": "002659",
        "group": "002659",
        "lat": 36.07912,
        "lon": 136.39245333333332
      },
      {
        "name": "志比堺",
        "code": "002631",
        "group": "002631",
        "lat": 36.09777,
        "lon": 136.311005
      },
      {
        "name": "新福井",
        "code": "002685",
        "group": "002685",
        "lat": 36.064835,
        "lon": 136.22693
      },
      {
        "name": "東藤島",
        "code": "002649",
        "group": "002649",
        "lat": 36.08663,
        "lon": 136.269855
      },
      {
        "name": "松岡",
        "code": "002637",
        "group": "002637",
        "lat": 36.094030000000004,
        "lon": 136.30172499999998
      },
      {
        "name": "比島",
        "code": "002682",
        "group": "002682",
        "lat": 36.06597666666667,
        "lon": 136.4841133333333
      },
      {
        "name": "永平寺口",
        "code": "002634",
        "group": "002634",
        "lat": 36.095805,
        "lon": 136.32674500000002
      },
      {
        "name": "発坂",
        "code": "002675",
        "group": "002675",
        "lat": 36.07259,
        "lon": 136.46616333333333
      },
      {
        "name": "福井",
        "code": "002688",
        "group": "002688",
        "lat": 36.0621,
        "lon": 136.22406
      },
      {
        "name": "福井口",
        "code": "002678",
        "group": "002677",
        "lat": 36.071495,
        "lon": 136.2334
      },
      {
        "name": "観音町",
        "code": "002639",
        "group": "002639",
        "lat": 36.09183,
        "lon": 136.28969
      },
      {
        "name": "越前島橋",
        "code": "002642",
        "group": "002642",
        "lat": 36.09012,
        "lon": 136.277265
      },
      {
        "name": "越前新保",
        "code": "002658",
        "group": "002658",
        "lat": 36.080380000000005,
        "lon": 136.25095
      },
      {
        "name": "越前竹原",
        "code": "002673",
        "group": "002673",
        "lat": 36.073933333333336,
        "lon": 136.41303
      },
      {
        "name": "越前野中",
        "code": "002653",
        "group": "002653",
        "lat": 36.08289,
        "lon": 136.37687666666667
      },
      {
        "name": "越前開発",
        "code": "002667",
        "group": "002667",
        "lat": 36.075305,
        "lon": 136.24128000000002
      },
      {
        "name": "轟",
        "code": "002648",
        "group": "002648",
        "lat": 36.086839999999995,
        "lon": 136.3611
      },
      {
        "name": "追分口",
        "code": "002654",
        "group": "002654",
        "lat": 36.08249,
        "lon": 136.261375
      }
    ]
  },
  "くま川鉄道": {
    "湯前線": [
      {
        "name": "あさぎり",
        "code": "009909",
        "group": "009909",
        "lat": 32.23625,
        "lon": 130.89376
      },
      {
        "name": "おかどめ幸福",
        "code": "009911",
        "group": "009911",
        "lat": 32.231449999999995,
        "lon": 130.87510500000002
      },
      {
        "name": "一武",
        "code": "009917",
        "group": "009917",
        "lat": 32.21456,
        "lon": 130.83994
      },
      {
        "name": "人吉温泉",
        "code": "009916",
        "group": "009916",
        "lat": 32.216139999999996,
        "lon": 130.753815
      },
      {
        "name": "公立病院前",
        "code": "009903",
        "group": "009903",
        "lat": 32.256035,
        "lon": 130.92189000000002
      },
      {
        "name": "多良木",
        "code": "009902",
        "group": "009902",
        "lat": 32.262755,
        "lon": 130.93319000000002
      },
      {
        "name": "川村",
        "code": "009920",
        "group": "009920",
        "lat": 32.207235,
        "lon": 130.79534999999998
      },
      {
        "name": "新鶴羽",
        "code": "009898",
        "group": "009898",
        "lat": 32.275445000000005,
        "lon": 130.96621
      },
      {
        "name": "木上",
        "code": "009913",
        "group": "009913",
        "lat": 32.224275000000006,
        "lon": 130.85890999999998
      },
      {
        "name": "東免田",
        "code": "009906",
        "group": "009906",
        "lat": 32.2502,
        "lon": 130.91302000000002
      },
      {
        "name": "東多良木",
        "code": "009899",
        "group": "009899",
        "lat": 32.272245,
        "lon": 130.95080000000002
      },
      {
        "name": "湯前",
        "code": "009897",
        "group": "009897",
        "lat": 32.281365,
        "lon": 130.979865
      },
      {
        "name": "相良藩願成寺",
        "code": "009914",
        "group": "009914",
        "lat": 32.218365,
        "lon": 130.769635
      },
      {
        "name": "肥後西村",
        "code": "009922",
        "group": "009922",
        "lat": 32.20227,
        "lon": 130.808865
      }
    ]
  },
  "しなの鉄道": {
    "しなの鉄道線": [
      {
        "name": "テクノさかき",
        "code": "002223",
        "group": "002223",
        "lat": 36.44058,
        "lon": 138.1882
      },
      {
        "name": "上田",
        "code": "002276",
        "group": "002275",
        "lat": 36.39575333333333,
        "lon": 138.25026
      },
      {
        "name": "中軽井沢",
        "code": "002353",
        "group": "002353",
        "lat": 36.347562,
        "lon": 138.59321200000002
      },
      {
        "name": "信濃国分寺",
        "code": "002303",
        "group": "002303",
        "lat": 36.37832,
        "lon": 138.27383500000002
      },
      {
        "name": "信濃追分",
        "code": "002371",
        "group": "002371",
        "lat": 36.335449999999994,
        "lon": 138.558495
      },
      {
        "name": "千曲",
        "code": "002173",
        "group": "002173",
        "lat": 36.509205,
        "lon": 138.14144499999998
      },
      {
        "name": "坂城",
        "code": "002211",
        "group": "002211",
        "lat": 36.46198,
        "lon": 138.18144999999998
      },
      {
        "name": "大屋",
        "code": "002322",
        "group": "002322",
        "lat": 36.36959,
        "lon": 138.29712999999998
      },
      {
        "name": "小諸",
        "code": "002384",
        "group": "002384",
        "lat": 36.32564166666666,
        "lon": 138.42290166666666
      },
      {
        "name": "屋代",
        "code": "002152",
        "group": "002152",
        "lat": 36.532422499999996,
        "lon": 138.1282
      },
      {
        "name": "屋代高校前",
        "code": "002132",
        "group": "002132",
        "lat": 36.547955,
        "lon": 138.13249
      },
      {
        "name": "平原",
        "code": "002414",
        "group": "002414",
        "lat": 36.308635,
        "lon": 138.45391
      },
      {
        "name": "御代田",
        "code": "002395",
        "group": "002395",
        "lat": 36.31899,
        "lon": 138.50632000000002
      },
      {
        "name": "戸倉",
        "code": "002185",
        "group": "002185",
        "lat": 36.4928675,
        "lon": 138.15308249999998
      },
      {
        "name": "滋野",
        "code": "002363",
        "group": "002363",
        "lat": 36.34232,
        "lon": 138.36390749999998
      },
      {
        "name": "田中",
        "code": "002343",
        "group": "002343",
        "lat": 36.354415,
        "lon": 138.32921
      },
      {
        "name": "篠ノ井",
        "code": "002098",
        "group": "002096",
        "lat": 36.57695666666667,
        "lon": 138.13807333333332
      },
      {
        "name": "西上田",
        "code": "002243",
        "group": "002243",
        "lat": 36.416875000000005,
        "lon": 138.209055
      },
      {
        "name": "軽井沢",
        "code": "002361",
        "group": "002361",
        "lat": 36.342863333333334,
        "lon": 138.63513
      }
    ],
    "北しなの線": [
      {
        "name": "三才",
        "code": "001968",
        "group": "001968",
        "lat": 36.686479999999996,
        "lon": 138.24385333333333
      },
      {
        "name": "北長野",
        "code": "002001",
        "group": "002001",
        "lat": 36.66507,
        "lon": 138.22265
      },
      {
        "name": "古間",
        "code": "001797",
        "group": "001797",
        "lat": 36.792402,
        "lon": 138.230482
      },
      {
        "name": "妙高高原",
        "code": "001746",
        "group": "001746",
        "lat": 36.872305,
        "lon": 138.21218499999998
      },
      {
        "name": "牟礼",
        "code": "001850",
        "group": "001850",
        "lat": 36.75321666666667,
        "lon": 138.24681
      },
      {
        "name": "豊野",
        "code": "001908",
        "group": "001907",
        "lat": 36.711095,
        "lon": 138.27555999999998
      },
      {
        "name": "長野",
        "code": "002032",
        "group": "002031",
        "lat": 36.643460000000005,
        "lon": 138.18885
      },
      {
        "name": "黒姫",
        "code": "001788",
        "group": "001788",
        "lat": 36.80732,
        "lon": 138.19711
      }
    ]
  },
  "とさでん交通": {
    "伊野線": [
      {
        "name": "はりまや橋",
        "code": "009117",
        "group": "009117",
        "lat": 33.559509999999996,
        "lon": 133.5428466666667
      },
      {
        "name": "グランド通",
        "code": "009138",
        "group": "009138",
        "lat": 33.557554999999994,
        "lon": 133.52939
      },
      {
        "name": "上町一丁目",
        "code": "009141",
        "group": "009141",
        "lat": 33.557315,
        "lon": 133.525105
      },
      {
        "name": "上町二丁目",
        "code": "009142",
        "group": "009142",
        "lat": 33.557285,
        "lon": 133.52305
      },
      {
        "name": "上町五丁目",
        "code": "009144",
        "group": "009144",
        "lat": 33.55726,
        "lon": 133.5173
      },
      {
        "name": "上町四丁目",
        "code": "009143",
        "group": "009143",
        "lat": 33.55727,
        "lon": 133.51982
      },
      {
        "name": "中山",
        "code": "009166",
        "group": "009166",
        "lat": 33.551775000000006,
        "lon": 133.452445
      },
      {
        "name": "伊野",
        "code": "009185",
        "group": "009185",
        "lat": 33.54851,
        "lon": 133.42852000000002
      },
      {
        "name": "伊野商業前",
        "code": "009175",
        "group": "009175",
        "lat": 33.550380000000004,
        "lon": 133.444245
      },
      {
        "name": "伊野駅前",
        "code": "009184",
        "group": "009184",
        "lat": 33.548590000000004,
        "lon": 133.429855
      },
      {
        "name": "八代通",
        "code": "009161",
        "group": "009161",
        "lat": 33.552255,
        "lon": 133.45628499999998
      },
      {
        "name": "北内",
        "code": "009178",
        "group": "009178",
        "lat": 33.549985,
        "lon": 133.442005
      },
      {
        "name": "北山",
        "code": "009181",
        "group": "009181",
        "lat": 33.549355,
        "lon": 133.43848
      },
      {
        "name": "咥内",
        "code": "009158",
        "group": "009158",
        "lat": 33.552525,
        "lon": 133.47111
      },
      {
        "name": "堀詰",
        "code": "009119",
        "group": "009119",
        "lat": 33.5595,
        "lon": 133.539395
      },
      {
        "name": "大橋通",
        "code": "009127",
        "group": "009127",
        "lat": 33.5589,
        "lon": 133.53639
      },
      {
        "name": "宇治団地前",
        "code": "009164",
        "group": "009164",
        "lat": 33.552035000000004,
        "lon": 133.46116
      },
      {
        "name": "宮の奥",
        "code": "009159",
        "group": "009159",
        "lat": 33.55248,
        "lon": 133.47578
      },
      {
        "name": "旭町一丁目",
        "code": "009147",
        "group": "009147",
        "lat": 33.5567,
        "lon": 133.513595
      },
      {
        "name": "旭町三丁目",
        "code": "009151",
        "group": "009151",
        "lat": 33.55562,
        "lon": 133.50634
      },
      {
        "name": "旭駅前通",
        "code": "009148",
        "group": "009148",
        "lat": 33.555955,
        "lon": 133.50964499999998
      },
      {
        "name": "曙町",
        "code": "009170",
        "group": "009170",
        "lat": 33.55112,
        "lon": 133.49084
      },
      {
        "name": "曙町東町",
        "code": "009167",
        "group": "009167",
        "lat": 33.551575,
        "lon": 133.49354499999998
      },
      {
        "name": "朝倉",
        "code": "009172",
        "group": "009168",
        "lat": 33.55070333333333,
        "lon": 133.48834
      },
      {
        "name": "朝倉神社前",
        "code": "009165",
        "group": "009165",
        "lat": 33.55203,
        "lon": 133.480825
      },
      {
        "name": "朝倉駅前",
        "code": "009171",
        "group": "009171",
        "lat": 33.550803333333334,
        "lon": 133.48582333333331
      },
      {
        "name": "枝川",
        "code": "009169",
        "group": "009169",
        "lat": 33.551455000000004,
        "lon": 133.44951500000002
      },
      {
        "name": "枡形",
        "code": "009140",
        "group": "009140",
        "lat": 33.55733,
        "lon": 133.52717
      },
      {
        "name": "県庁前",
        "code": "009136",
        "group": "009136",
        "lat": 33.55804,
        "lon": 133.532265
      },
      {
        "name": "蛍橋",
        "code": "009152",
        "group": "009152",
        "lat": 33.555369999999996,
        "lon": 133.50343500000002
      },
      {
        "name": "鏡川橋",
        "code": "009149",
        "group": "009149",
        "lat": 33.5557,
        "lon": 133.49875
      },
      {
        "name": "高知城前",
        "code": "009131",
        "group": "009131",
        "lat": 33.55842,
        "lon": 133.53418499999998
      },
      {
        "name": "鳴谷",
        "code": "009183",
        "group": "009183",
        "lat": 33.548805,
        "lon": 133.43285500000002
      },
      {
        "name": "鴨部",
        "code": "009163",
        "group": "009163",
        "lat": 33.552085,
        "lon": 133.496575
      }
    ],
    "後免線": [
      {
        "name": "はりまや橋",
        "code": "009118",
        "group": "009117",
        "lat": 33.559509999999996,
        "lon": 133.5428466666667
      },
      {
        "name": "デンテツターミナルビル前",
        "code": "009120",
        "group": "009120",
        "lat": 33.559385,
        "lon": 133.54406
      },
      {
        "name": "一条橋",
        "code": "009076",
        "group": "009076",
        "lat": 33.574659999999994,
        "lon": 133.614075
      },
      {
        "name": "介良通",
        "code": "009115",
        "group": "009115",
        "lat": 33.560233333333336,
        "lon": 133.58366666666666
      },
      {
        "name": "住吉通",
        "code": "009067",
        "group": "009067",
        "lat": 33.57637,
        "lon": 133.63647333333333
      },
      {
        "name": "北浦",
        "code": "009084",
        "group": "009084",
        "lat": 33.57319,
        "lon": 133.603525
      },
      {
        "name": "宝永町",
        "code": "009130",
        "group": "009130",
        "lat": 33.55859,
        "lon": 133.55367
      },
      {
        "name": "小篭通",
        "code": "009069",
        "group": "009069",
        "lat": 33.57617333333334,
        "lon": 133.62609999999998
      },
      {
        "name": "後免中町",
        "code": "009072",
        "group": "009072",
        "lat": 33.57546333333334,
        "lon": 133.64598333333333
      },
      {
        "name": "後免東町",
        "code": "009078",
        "group": "009078",
        "lat": 33.57460666666666,
        "lon": 133.64826333333335
      },
      {
        "name": "後免町",
        "code": "009079",
        "group": "009077",
        "lat": 33.57440333333333,
        "lon": 133.65032
      },
      {
        "name": "後免西町",
        "code": "009070",
        "group": "009070",
        "lat": 33.57577,
        "lon": 133.64295
      },
      {
        "name": "文珠通",
        "code": "009121",
        "group": "009121",
        "lat": 33.55916,
        "lon": 133.58013499999998
      },
      {
        "name": "新木",
        "code": "009110",
        "group": "009110",
        "lat": 33.562235,
        "lon": 133.58672
      },
      {
        "name": "明見橋",
        "code": "009075",
        "group": "009075",
        "lat": 33.57468,
        "lon": 133.617935
      },
      {
        "name": "東工業前",
        "code": "009068",
        "group": "009068",
        "lat": 33.57624666666666,
        "lon": 133.63763333333335
      },
      {
        "name": "東新木",
        "code": "009106",
        "group": "009106",
        "lat": 33.56408999999999,
        "lon": 133.589745
      },
      {
        "name": "清和学園前",
        "code": "009074",
        "group": "009074",
        "lat": 33.57468,
        "lon": 133.612555
      },
      {
        "name": "田辺島通",
        "code": "009101",
        "group": "009101",
        "lat": 33.566085,
        "lon": 133.592755
      },
      {
        "name": "県立美術館通",
        "code": "009128",
        "group": "009128",
        "lat": 33.558865,
        "lon": 133.575615
      },
      {
        "name": "知寄町",
        "code": "009137",
        "group": "009137",
        "lat": 33.557900000000004,
        "lon": 133.56151
      },
      {
        "name": "知寄町一丁目",
        "code": "009133",
        "group": "009133",
        "lat": 33.558355,
        "lon": 133.556715
      },
      {
        "name": "知寄町三丁目",
        "code": "009139",
        "group": "009139",
        "lat": 33.557475,
        "lon": 133.5656
      },
      {
        "name": "知寄町二丁目",
        "code": "009135",
        "group": "009135",
        "lat": 33.558075,
        "lon": 133.55992
      },
      {
        "name": "篠原",
        "code": "009065",
        "group": "009065",
        "lat": 33.576876666666664,
        "lon": 133.63162333333335
      },
      {
        "name": "舟戸",
        "code": "009088",
        "group": "009088",
        "lat": 33.57022,
        "lon": 133.59967
      },
      {
        "name": "菜園場町",
        "code": "009126",
        "group": "009126",
        "lat": 33.55901,
        "lon": 133.548565
      },
      {
        "name": "葛島橋東詰",
        "code": "009146",
        "group": "009146",
        "lat": 33.556966666666675,
        "lon": 133.56971333333334
      },
      {
        "name": "西高須",
        "code": "009134",
        "group": "009134",
        "lat": 33.55813,
        "lon": 133.57314
      },
      {
        "name": "長崎",
        "code": "009073",
        "group": "009073",
        "lat": 33.575025,
        "lon": 133.62098
      },
      {
        "name": "領石通",
        "code": "009081",
        "group": "009081",
        "lat": 33.57382,
        "lon": 133.607915
      },
      {
        "name": "高須",
        "code": "009122",
        "group": "009122",
        "lat": 33.559129999999996,
        "lon": 133.577115
      },
      {
        "name": "鹿児",
        "code": "009093",
        "group": "009093",
        "lat": 33.567004999999995,
        "lon": 133.597105
      }
    ],
    "桟橋線": [
      {
        "name": "はりまや橋",
        "code": "009124",
        "group": "009117",
        "lat": 33.55910333333333,
        "lon": 133.54278666666667
      },
      {
        "name": "桟橋車庫前",
        "code": "009200",
        "group": "009200",
        "lat": 33.541285,
        "lon": 133.552235
      },
      {
        "name": "桟橋通一丁目",
        "code": "009176",
        "group": "009176",
        "lat": 33.550295,
        "lon": 133.5461
      },
      {
        "name": "桟橋通三丁目",
        "code": "009192",
        "group": "009192",
        "lat": 33.54666,
        "lon": 133.54855500000002
      },
      {
        "name": "桟橋通二丁目",
        "code": "009182",
        "group": "009182",
        "lat": 33.549080000000004,
        "lon": 133.54691000000003
      },
      {
        "name": "桟橋通五丁目",
        "code": "009201",
        "group": "009201",
        "lat": 33.540455,
        "lon": 133.55277
      },
      {
        "name": "桟橋通四丁目",
        "code": "009195",
        "group": "009195",
        "lat": 33.544635,
        "lon": 133.54995
      },
      {
        "name": "梅の辻",
        "code": "009155",
        "group": "009155",
        "lat": 33.554125,
        "lon": 133.543495
      }
    ],
    "駅前線": [
      {
        "name": "はりまや橋",
        "code": "009123",
        "group": "009117",
        "lat": 33.55910333333333,
        "lon": 133.54278666666667
      },
      {
        "name": "蓮池町通",
        "code": "009111",
        "group": "009111",
        "lat": 33.562115,
        "lon": 133.54316
      },
      {
        "name": "高知橋",
        "code": "009107",
        "group": "009107",
        "lat": 33.56389,
        "lon": 133.54337
      },
      {
        "name": "高知駅前",
        "code": "009098",
        "group": "009098",
        "lat": 33.566515,
        "lon": 133.543695
      }
    ]
  },
  "のと鉄道": {
    "七尾線": [
      {
        "name": "七尾",
        "code": "001670",
        "group": "001669",
        "lat": 37.04178,
        "lon": 136.96422
      },
      {
        "name": "和倉温泉",
        "code": "001650",
        "group": "001649",
        "lat": 37.0747,
        "lon": 136.92583333333334
      },
      {
        "name": "田鶴浜",
        "code": "001656",
        "group": "001656",
        "lat": 37.065740000000005,
        "lon": 136.89147
      },
      {
        "name": "穴水",
        "code": "001577",
        "group": "001577",
        "lat": 37.228035000000006,
        "lon": 136.904585
      },
      {
        "name": "笠師保",
        "code": "001648",
        "group": "001648",
        "lat": 37.079505,
        "lon": 136.85775
      },
      {
        "name": "能登中島",
        "code": "001633",
        "group": "001633",
        "lat": 37.109255,
        "lon": 136.853615
      },
      {
        "name": "能登鹿島",
        "code": "001596",
        "group": "001596",
        "lat": 37.17979,
        "lon": 136.897855
      },
      {
        "name": "西岸",
        "code": "001614",
        "group": "001614",
        "lat": 37.147665,
        "lon": 136.87416000000002
      }
    ]
  },
  "ひたちなか海浜鉄道": {
    "湊線": [
      {
        "name": "中根",
        "code": "002324",
        "group": "002324",
        "lat": 36.367452,
        "lon": 140.5620945
      },
      {
        "name": "勝田",
        "code": "002283",
        "group": "002280",
        "lat": 36.3932665,
        "lon": 140.52436749999998
      },
      {
        "name": "工機前",
        "code": "002292",
        "group": "002292",
        "lat": 36.388127499999996,
        "lon": 140.5246495
      },
      {
        "name": "平磯",
        "code": "002339",
        "group": "002339",
        "lat": 36.3575145,
        "lon": 140.607584
      },
      {
        "name": "殿山",
        "code": "002352",
        "group": "002352",
        "lat": 36.349435,
        "lon": 140.6010115
      },
      {
        "name": "磯崎",
        "code": "002306",
        "group": "002306",
        "lat": 36.3777495,
        "lon": 140.617934
      },
      {
        "name": "美乃浜学園",
        "code": "002312",
        "group": "002312",
        "lat": 36.37210889000001,
        "lon": 140.61691231
      },
      {
        "name": "那珂湊",
        "code": "002358",
        "group": "002358",
        "lat": 36.3455345,
        "lon": 140.58766250000002
      },
      {
        "name": "金上",
        "code": "002299",
        "group": "002299",
        "lat": 36.3824255,
        "lon": 140.5339245
      },
      {
        "name": "阿字ヶ浦",
        "code": "002298",
        "group": "002298",
        "lat": 36.383434,
        "lon": 140.612345
      },
      {
        "name": "高田の鉄橋",
        "code": "002347",
        "group": "002347",
        "lat": 36.352491175,
        "lon": 140.580202835
      }
    ]
  },
  "ゆりかもめ": {
    "東京臨海新交通臨海線": [
      {
        "name": "お台場海浜公園",
        "code": "004091",
        "group": "004091",
        "lat": 35.629805000000005,
        "lon": 139.77853
      },
      {
        "name": "テレコムセンター",
        "code": "004144",
        "group": "004144",
        "lat": 35.617725,
        "lon": 139.77966500000002
      },
      {
        "name": "台場",
        "code": "004112",
        "group": "004112",
        "lat": 35.625870000000006,
        "lon": 139.77137499999998
      },
      {
        "name": "市場前",
        "code": "004001",
        "group": "004001",
        "lat": 35.64569,
        "lon": 139.78565
      },
      {
        "name": "新橋",
        "code": "003882",
        "group": "003872",
        "lat": 35.66558333333333,
        "lon": 139.75958666666668
      },
      {
        "name": "新豊洲",
        "code": "003981",
        "group": "003981",
        "lat": 35.64871,
        "lon": 139.79011500000001
      },
      {
        "name": "日の出",
        "code": "003979",
        "group": "003979",
        "lat": 35.64926,
        "lon": 139.75916
      },
      {
        "name": "有明",
        "code": "004064",
        "group": "004064",
        "lat": 35.63455,
        "lon": 139.79334
      },
      {
        "name": "有明テニスの森",
        "code": "004037",
        "group": "004037",
        "lat": 35.63998,
        "lon": 139.788895
      },
      {
        "name": "東京ビッグサイト",
        "code": "004087",
        "group": "004087",
        "lat": 35.63021,
        "lon": 139.7913
      },
      {
        "name": "東京国際クルーズターミナル",
        "code": "004128",
        "group": "004128",
        "lat": 35.621357445,
        "lon": 139.77310318000002
      },
      {
        "name": "汐留",
        "code": "003896",
        "group": "003887",
        "lat": 35.662985,
        "lon": 139.760075
      },
      {
        "name": "竹芝",
        "code": "003958",
        "group": "003958",
        "lat": 35.654065,
        "lon": 139.762015
      },
      {
        "name": "芝浦ふ頭",
        "code": "004030",
        "group": "004030",
        "lat": 35.64222,
        "lon": 139.75787
      },
      {
        "name": "豊洲",
        "code": "003961",
        "group": "003951",
        "lat": 35.653705,
        "lon": 139.795435
      },
      {
        "name": "青海",
        "code": "004119",
        "group": "004119",
        "lat": 35.6248,
        "lon": 139.781315
      }
    ]
  },
  "わたらせ渓谷鐵道": {
    "わたらせ渓谷線": [
      {
        "name": "上神梅",
        "code": "002203",
        "group": "002203",
        "lat": 36.47007,
        "lon": 139.257725
      },
      {
        "name": "下新田",
        "code": "002261",
        "group": "002261",
        "lat": 36.40777666666667,
        "lon": 139.31508666666667
      },
      {
        "name": "中野",
        "code": "002161",
        "group": "002161",
        "lat": 36.524275,
        "lon": 139.317165
      },
      {
        "name": "原向",
        "code": "002058",
        "group": "002058",
        "lat": 36.61731,
        "lon": 139.42052999999999
      },
      {
        "name": "大間々",
        "code": "002227",
        "group": "002227",
        "lat": 36.434614999999994,
        "lon": 139.27755000000002
      },
      {
        "name": "小中",
        "code": "002147",
        "group": "002147",
        "lat": 36.535655,
        "lon": 139.337795
      },
      {
        "name": "本宿",
        "code": "002195",
        "group": "002195",
        "lat": 36.481425,
        "lon": 139.259345
      },
      {
        "name": "桐生",
        "code": "002256",
        "group": "002255",
        "lat": 36.41109666666666,
        "lon": 139.33325333333335
      },
      {
        "name": "水沼",
        "code": "002180",
        "group": "002180",
        "lat": 36.499849999999995,
        "lon": 139.277595
      },
      {
        "name": "沢入",
        "code": "002089",
        "group": "002089",
        "lat": 36.58063,
        "lon": 139.39628499999998
      },
      {
        "name": "相老",
        "code": "002259",
        "group": "002258",
        "lat": 36.41030666666666,
        "lon": 139.30440666666667
      },
      {
        "name": "神戸",
        "code": "002145",
        "group": "002145",
        "lat": 36.537505,
        "lon": 139.356565
      },
      {
        "name": "花輪",
        "code": "002164",
        "group": "002164",
        "lat": 36.520830000000004,
        "lon": 139.3077
      },
      {
        "name": "足尾",
        "code": "002036",
        "group": "002036",
        "lat": 36.641915,
        "lon": 139.447775
      },
      {
        "name": "通洞",
        "code": "002039",
        "group": "002039",
        "lat": 36.636865,
        "lon": 139.43965
      },
      {
        "name": "運動公園",
        "code": "002238",
        "group": "002238",
        "lat": 36.42041,
        "lon": 139.30086
      },
      {
        "name": "間藤",
        "code": "002018",
        "group": "002018",
        "lat": 36.65354,
        "lon": 139.45009
      }
    ]
  },
  "アイジーアールいわて銀河鉄道": {
    "いわて銀河鉄道線": [
      {
        "name": "いわて沼宮内",
        "code": "000734",
        "group": "000733",
        "lat": 39.960589999999996,
        "lon": 141.21707500000002
      },
      {
        "name": "一戸",
        "code": "000686",
        "group": "000686",
        "lat": 40.210374,
        "lon": 141.297388
      },
      {
        "name": "二戸",
        "code": "000668",
        "group": "000668",
        "lat": 40.25983,
        "lon": 141.28598499999998
      },
      {
        "name": "厨川",
        "code": "000776",
        "group": "000776",
        "lat": 39.74408,
        "lon": 141.12886
      },
      {
        "name": "奥中山高原",
        "code": "000718",
        "group": "000718",
        "lat": 40.066155,
        "lon": 141.2285
      },
      {
        "name": "好摩",
        "code": "000758",
        "group": "000757",
        "lat": 39.87416,
        "lon": 141.173675
      },
      {
        "name": "小繋",
        "code": "000707",
        "group": "000707",
        "lat": 40.123104999999995,
        "lon": 141.26042
      },
      {
        "name": "小鳥谷",
        "code": "000698",
        "group": "000698",
        "lat": 40.17111666666667,
        "lon": 141.30773666666664
      },
      {
        "name": "岩手川口",
        "code": "000743",
        "group": "000743",
        "lat": 39.91931333333334,
        "lon": 141.19937333333334
      },
      {
        "name": "巣子",
        "code": "000771",
        "group": "000771",
        "lat": 39.783426666666664,
        "lon": 141.14864666666668
      },
      {
        "name": "御堂",
        "code": "000727",
        "group": "000727",
        "lat": 40.00436,
        "lon": 141.23705
      },
      {
        "name": "斗米",
        "code": "000662",
        "group": "000662",
        "lat": 40.285606666666666,
        "lon": 141.29091333333335
      },
      {
        "name": "渋民",
        "code": "000764",
        "group": "000764",
        "lat": 39.834745,
        "lon": 141.15422999999998
      },
      {
        "name": "滝沢",
        "code": "000770",
        "group": "000770",
        "lat": 39.799,
        "lon": 141.149555
      },
      {
        "name": "盛岡",
        "code": "000794",
        "group": "000792",
        "lat": 39.701195,
        "lon": 141.136375
      },
      {
        "name": "目時",
        "code": "000651",
        "group": "000651",
        "lat": 40.352050000000006,
        "lon": 141.289575
      },
      {
        "name": "金田一温泉",
        "code": "000657",
        "group": "000657",
        "lat": 40.3230975,
        "lon": 141.3038325
      },
      {
        "name": "青山",
        "code": "000782",
        "group": "000782",
        "lat": 39.72465333333333,
        "lon": 141.11829666666668
      }
    ]
  },
  "アルピコ交通": {
    "上高地線": [
      {
        "name": "三溝",
        "code": "002532",
        "group": "002532",
        "lat": 36.212655,
        "lon": 137.89130999999998
      },
      {
        "name": "下島",
        "code": "002540",
        "group": "002540",
        "lat": 36.20614,
        "lon": 137.871895
      },
      {
        "name": "下新",
        "code": "002516",
        "group": "002516",
        "lat": 36.225139999999996,
        "lon": 137.92262
      },
      {
        "name": "信濃荒井",
        "code": "002510",
        "group": "002510",
        "lat": 36.229074000000004,
        "lon": 137.949524
      },
      {
        "name": "北新・松本大学前",
        "code": "002523",
        "group": "002523",
        "lat": 36.219629999999995,
        "lon": 137.91352999999998
      },
      {
        "name": "大庭",
        "code": "002513",
        "group": "002513",
        "lat": 36.226960000000005,
        "lon": 137.94126
      },
      {
        "name": "新島々",
        "code": "002555",
        "group": "002555",
        "lat": 36.189805,
        "lon": 137.821765
      },
      {
        "name": "新村",
        "code": "002528",
        "group": "002528",
        "lat": 36.216465,
        "lon": 137.905325
      },
      {
        "name": "松本",
        "code": "002504",
        "group": "002506",
        "lat": 36.231055,
        "lon": 137.96377999999999
      },
      {
        "name": "森口",
        "code": "002538",
        "group": "002538",
        "lat": 36.208020000000005,
        "lon": 137.88133
      },
      {
        "name": "波田",
        "code": "002545",
        "group": "002545",
        "lat": 36.200405,
        "lon": 137.85645
      },
      {
        "name": "渕東",
        "code": "002546",
        "group": "002546",
        "lat": 36.19519,
        "lon": 137.83994
      },
      {
        "name": "渚",
        "code": "002511",
        "group": "002511",
        "lat": 36.227135000000004,
        "lon": 137.956085
      },
      {
        "name": "西松本",
        "code": "002512",
        "group": "002512",
        "lat": 36.227000000000004,
        "lon": 137.96317499999998
      }
    ]
  },
  "スカイレールサービス": {
    "広島短距離交通瀬野線": [
      {
        "name": "みどり中央",
        "code": "007968",
        "group": "007968",
        "lat": 34.43024,
        "lon": 132.589605
      },
      {
        "name": "みどり中街",
        "code": "007972",
        "group": "007972",
        "lat": 34.42765,
        "lon": 132.595015
      },
      {
        "name": "みどり口",
        "code": "007978",
        "group": "007978",
        "lat": 34.422325,
        "lon": 132.596315
      }
    ]
  },
  "ラクテンチ": {
    "別府ラクテンチケーブル線": [
      {
        "name": "乙原",
        "code": "009433",
        "group": "009433",
        "lat": 33.274446,
        "lon": 131.4829915
      },
      {
        "name": "雲泉寺",
        "code": "009432",
        "group": "009432",
        "lat": 33.2748045,
        "lon": 131.4855235
      }
    ]
  },
  "一畑電車": {
    "北松江線": [
      {
        "name": "一畑口",
        "code": "004637",
        "group": "004637",
        "lat": 35.4646,
        "lon": 132.882845
      },
      {
        "name": "伊野灘",
        "code": "004648",
        "group": "004648",
        "lat": 35.461245,
        "lon": 132.90088500000002
      },
      {
        "name": "出雲科学館パークタウン前",
        "code": "004936",
        "group": "004936",
        "lat": 35.363065,
        "lon": 132.76650999999998
      },
      {
        "name": "園",
        "code": "004661",
        "group": "004661",
        "lat": 35.456135,
        "lon": 132.86813
      },
      {
        "name": "大寺",
        "code": "004802",
        "group": "004802",
        "lat": 35.40442,
        "lon": 132.78743500000002
      },
      {
        "name": "大津町",
        "code": "004916",
        "group": "004916",
        "lat": 35.369095,
        "lon": 132.77432499999998
      },
      {
        "name": "川跡",
        "code": "004849",
        "group": "004848",
        "lat": 35.395145,
        "lon": 132.77641
      },
      {
        "name": "布崎",
        "code": "004678",
        "group": "004678",
        "lat": 35.450235,
        "lon": 132.855005
      },
      {
        "name": "旅伏",
        "code": "004763",
        "group": "004763",
        "lat": 35.421189999999996,
        "lon": 132.80686
      },
      {
        "name": "朝日ヶ丘",
        "code": "004585",
        "group": "004585",
        "lat": 35.480956666666664,
        "lon": 132.98778000000001
      },
      {
        "name": "松江しんじ湖温泉",
        "code": "004625",
        "group": "004625",
        "lat": 35.467079999999996,
        "lon": 133.04539499999998
      },
      {
        "name": "松江イングリッシュガーデン前",
        "code": "004599",
        "group": "004599",
        "lat": 35.47735,
        "lon": 133.003985
      },
      {
        "name": "松江フォーゲルパーク",
        "code": "004607",
        "group": "004607",
        "lat": 35.474905,
        "lon": 132.94369999999998
      },
      {
        "name": "武志",
        "code": "004868",
        "group": "004868",
        "lat": 35.388000000000005,
        "lon": 132.77327000000002
      },
      {
        "name": "津ノ森",
        "code": "004630",
        "group": "004630",
        "lat": 35.466350000000006,
        "lon": 132.91905000000003
      },
      {
        "name": "湖遊館新駅",
        "code": "004673",
        "group": "004673",
        "lat": 35.452685,
        "lon": 132.862145
      },
      {
        "name": "秋鹿町",
        "code": "004600",
        "group": "004600",
        "lat": 35.47723,
        "lon": 132.95673
      },
      {
        "name": "美談",
        "code": "004781",
        "group": "004781",
        "lat": 35.412555,
        "lon": 132.79810500000002
      },
      {
        "name": "長江",
        "code": "004589",
        "group": "004589",
        "lat": 35.479839999999996,
        "lon": 132.974315
      },
      {
        "name": "雲州平田",
        "code": "004727",
        "group": "004727",
        "lat": 35.43231,
        "lon": 132.82368
      },
      {
        "name": "電鉄出雲市",
        "code": "004940",
        "group": "004940",
        "lat": 35.361145,
        "lon": 132.757805
      },
      {
        "name": "高ノ宮",
        "code": "004610",
        "group": "004610",
        "lat": 35.4718,
        "lon": 132.930435
      }
    ],
    "大社線": [
      {
        "name": "出雲大社前",
        "code": "004855",
        "group": "004855",
        "lat": 35.393265,
        "lon": 132.68766
      },
      {
        "name": "川跡",
        "code": "004848",
        "group": "004848",
        "lat": 35.395145,
        "lon": 132.77641
      },
      {
        "name": "浜山公園北口",
        "code": "004864",
        "group": "004864",
        "lat": 35.389070000000004,
        "lon": 132.708135
      },
      {
        "name": "遥堪",
        "code": "004863",
        "group": "004863",
        "lat": 35.38922,
        "lon": 132.72629
      },
      {
        "name": "高浜",
        "code": "004858",
        "group": "004858",
        "lat": 35.39072,
        "lon": 132.74668666666665
      }
    ]
  },
  "一般社団法人札幌市交通事業振興公社": {
    "1条線": [
      {
        "name": "中央区役所前",
        "code": "000241",
        "group": "000241",
        "lat": 43.057515,
        "lon": 141.341975
      },
      {
        "name": "西15丁目",
        "code": "000247",
        "group": "000247",
        "lat": 43.05624,
        "lon": 141.33522499999998
      },
      {
        "name": "西4丁目",
        "code": "000235",
        "group": "000235",
        "lat": 43.058895,
        "lon": 141.351845
      },
      {
        "name": "西8丁目",
        "code": "000238",
        "group": "000238",
        "lat": 43.05818,
        "lon": 141.34672
      }
    ],
    "山鼻線": [
      {
        "name": "すすきの",
        "code": "000251",
        "group": "000251",
        "lat": 43.05556,
        "lon": 141.35273
      },
      {
        "name": "中央図書館前",
        "code": "000294",
        "group": "000293",
        "lat": 43.03042,
        "lon": 141.34008
      },
      {
        "name": "中島公園通",
        "code": "000268",
        "group": "000268",
        "lat": 43.045905,
        "lon": 141.350145
      },
      {
        "name": "山鼻19条",
        "code": "000284",
        "group": "000284",
        "lat": 43.03506,
        "lon": 141.351565
      },
      {
        "name": "山鼻9条",
        "code": "000261",
        "group": "000261",
        "lat": 43.049015,
        "lon": 141.349765
      },
      {
        "name": "幌南小学校前",
        "code": "000288",
        "group": "000288",
        "lat": 43.032295000000005,
        "lon": 141.35191
      },
      {
        "name": "東屯田通",
        "code": "000290",
        "group": "000290",
        "lat": 43.031045,
        "lon": 141.348835
      },
      {
        "name": "東本願寺前",
        "code": "000259",
        "group": "000259",
        "lat": 43.05171,
        "lon": 141.349355
      },
      {
        "name": "石山通",
        "code": "000291",
        "group": "000291",
        "lat": 43.03071,
        "lon": 141.34422
      },
      {
        "name": "行啓通",
        "code": "000272",
        "group": "000272",
        "lat": 43.041669999999996,
        "lon": 141.35066999999998
      },
      {
        "name": "資生館小学校前",
        "code": "000254",
        "group": "000254",
        "lat": 43.055115,
        "lon": 141.34926000000002
      },
      {
        "name": "静修学園前",
        "code": "000279",
        "group": "000279",
        "lat": 43.038309999999996,
        "lon": 141.351115
      }
    ],
    "山鼻西線": [
      {
        "name": "ロープウェイ入口",
        "code": "000286",
        "group": "000286",
        "lat": 43.033964999999995,
        "lon": 141.33728000000002
      },
      {
        "name": "中央図書館前",
        "code": "000293",
        "group": "000293",
        "lat": 43.03042,
        "lon": 141.34008
      },
      {
        "name": "西15丁目",
        "code": "000248",
        "group": "000247",
        "lat": 43.05624,
        "lon": 141.33522499999998
      },
      {
        "name": "西線11条",
        "code": "000270",
        "group": "000270",
        "lat": 43.044955,
        "lon": 141.33587
      },
      {
        "name": "西線14条",
        "code": "000274",
        "group": "000274",
        "lat": 43.040639999999996,
        "lon": 141.336435
      },
      {
        "name": "西線16条",
        "code": "000281",
        "group": "000281",
        "lat": 43.037310000000005,
        "lon": 141.33684499999998
      },
      {
        "name": "西線6条",
        "code": "000260",
        "group": "000260",
        "lat": 43.05157,
        "lon": 141.335035
      },
      {
        "name": "西線9条旭山公園通",
        "code": "000263",
        "group": "000263",
        "lat": 43.048265,
        "lon": 141.33546
      },
      {
        "name": "電車事業所前",
        "code": "000292",
        "group": "000292",
        "lat": 43.03066,
        "lon": 141.33769999999998
      }
    ],
    "都心線": [
      {
        "name": "すすきの",
        "code": "000252",
        "group": "000251",
        "lat": 43.05556,
        "lon": 141.35273
      },
      {
        "name": "狸小路",
        "code": "000242",
        "group": "000242",
        "lat": 43.05704411,
        "lon": 141.35284982
      },
      {
        "name": "西4丁目",
        "code": "000236",
        "group": "000235",
        "lat": 43.058895,
        "lon": 141.351845
      }
    ]
  },
  "一般社団法人神戸住環境整備公社": {
    "摩耶ケーブル線": [
      {
        "name": "摩耶ケーブル",
        "code": "006971",
        "group": "006971",
        "lat": 34.72009,
        "lon": 135.216005
      },
      {
        "name": "虹",
        "code": "006940",
        "group": "006940",
        "lat": 34.72701,
        "lon": 135.21236
      }
    ]
  },
  "一般財団法人青函トンネル記念館": {
    "青函トンネル竜飛斜坑線": [
      {
        "name": "体験坑道",
        "code": "000482",
        "group": "000482",
        "lat": 41.2565,
        "lon": 140.34763800000002
      },
      {
        "name": "青函トンネル記念館",
        "code": "000483",
        "group": "000483",
        "lat": 41.254315000000005,
        "lon": 140.347081
      }
    ]
  },
  "万葉線": {
    "新湊港線": [
      {
        "name": "中新湊",
        "code": "001819",
        "group": "001819",
        "lat": 36.775,
        "lon": 137.088885
      },
      {
        "name": "六渡寺",
        "code": "001802",
        "group": "001802",
        "lat": 36.788825,
        "lon": 137.06597
      },
      {
        "name": "庄川口",
        "code": "001807",
        "group": "001807",
        "lat": 36.78407,
        "lon": 137.07101
      },
      {
        "name": "新町口",
        "code": "001814",
        "group": "001814",
        "lat": 36.778635,
        "lon": 137.08432
      },
      {
        "name": "東新湊",
        "code": "001815",
        "group": "001815",
        "lat": 36.777865,
        "lon": 137.09905500000002
      },
      {
        "name": "海王丸",
        "code": "001817",
        "group": "001817",
        "lat": 36.776285,
        "lon": 137.10669000000001
      },
      {
        "name": "西新湊",
        "code": "001811",
        "group": "001811",
        "lat": 36.781205,
        "lon": 137.07841
      },
      {
        "name": "越ノ潟",
        "code": "001820",
        "group": "001820",
        "lat": 36.774834999999996,
        "lon": 137.111935
      }
    ],
    "高岡軌道線": [
      {
        "name": "中伏木",
        "code": "001805",
        "group": "001805",
        "lat": 36.78794,
        "lon": 137.06148000000002
      },
      {
        "name": "六渡寺",
        "code": "001803",
        "group": "001802",
        "lat": 36.788825,
        "lon": 137.06597
      },
      {
        "name": "吉久",
        "code": "001810",
        "group": "001810",
        "lat": 36.781864999999996,
        "lon": 137.056355
      },
      {
        "name": "坂下町",
        "code": "001861",
        "group": "001861",
        "lat": 36.74741,
        "lon": 137.01486666666668
      },
      {
        "name": "市民病院前",
        "code": "001842",
        "group": "001842",
        "lat": 36.75819,
        "lon": 137.026205
      },
      {
        "name": "広小路",
        "code": "001851",
        "group": "001851",
        "lat": 36.75250666666667,
        "lon": 137.02069000000003
      },
      {
        "name": "志貴野中学校前",
        "code": "001845",
        "group": "001845",
        "lat": 36.755305,
        "lon": 137.02352000000002
      },
      {
        "name": "急患医療センター前",
        "code": "001854",
        "group": "001854",
        "lat": 36.749966666666666,
        "lon": 137.01810333333333
      },
      {
        "name": "新吉久",
        "code": "001818",
        "group": "001818",
        "lat": 36.776129999999995,
        "lon": 137.05298
      },
      {
        "name": "新能町",
        "code": "001826",
        "group": "001826",
        "lat": 36.77028,
        "lon": 137.037825
      },
      {
        "name": "旭ヶ丘",
        "code": "001834",
        "group": "001834",
        "lat": 36.763315,
        "lon": 137.03189
      },
      {
        "name": "末広町",
        "code": "001866",
        "group": "001866",
        "lat": 36.744485,
        "lon": 137.013445
      },
      {
        "name": "江尻",
        "code": "001837",
        "group": "001837",
        "lat": 36.761485,
        "lon": 137.029855
      },
      {
        "name": "片原町",
        "code": "001864",
        "group": "001864",
        "lat": 36.74630666666667,
        "lon": 137.01290666666668
      },
      {
        "name": "米島口",
        "code": "001824",
        "group": "001824",
        "lat": 36.772025,
        "lon": 137.03848
      },
      {
        "name": "能町口",
        "code": "001823",
        "group": "001823",
        "lat": 36.77315,
        "lon": 137.048775
      },
      {
        "name": "荻布",
        "code": "001833",
        "group": "001833",
        "lat": 36.766805,
        "lon": 137.035755
      },
      {
        "name": "高岡駅",
        "code": "001870",
        "group": "001870",
        "lat": 36.741553255,
        "lon": 137.015076955
      }
    ]
  },
  "三岐鉄道": {
    "三岐線": [
      {
        "name": "三里",
        "code": "005675",
        "group": "005675",
        "lat": 35.10724999999999,
        "lon": 136.53833
      },
      {
        "name": "丹生川",
        "code": "005617",
        "group": "005617",
        "lat": 35.122704999999996,
        "lon": 136.51954
      },
      {
        "name": "伊勢治田",
        "code": "005580",
        "group": "005580",
        "lat": 35.132755,
        "lon": 136.514745
      },
      {
        "name": "保々",
        "code": "005841",
        "group": "005841",
        "lat": 35.046775,
        "lon": 136.56592
      },
      {
        "name": "北勢中央公園口",
        "code": "005799",
        "group": "005799",
        "lat": 35.060605,
        "lon": 136.566045
      },
      {
        "name": "大安",
        "code": "005722",
        "group": "005722",
        "lat": 35.091544999999996,
        "lon": 136.54576
      },
      {
        "name": "大矢知",
        "code": "005906",
        "group": "005906",
        "lat": 35.022144999999995,
        "lon": 136.633415
      },
      {
        "name": "山城",
        "code": "005868",
        "group": "005868",
        "lat": 35.035275,
        "lon": 136.588355
      },
      {
        "name": "平津",
        "code": "005882",
        "group": "005882",
        "lat": 35.02844,
        "lon": 136.61843
      },
      {
        "name": "暁学園前",
        "code": "005872",
        "group": "005872",
        "lat": 35.03282,
        "lon": 136.605955
      },
      {
        "name": "東藤原",
        "code": "005537",
        "group": "005537",
        "lat": 35.147415,
        "lon": 136.49883499999999
      },
      {
        "name": "梅戸井",
        "code": "005753",
        "group": "005753",
        "lat": 35.075055000000006,
        "lon": 136.55719499999998
      },
      {
        "name": "西藤原",
        "code": "005458",
        "group": "005458",
        "lat": 35.170195,
        "lon": 136.47813
      },
      {
        "name": "西野尻",
        "code": "005481",
        "group": "005481",
        "lat": 35.16404,
        "lon": 136.48793
      }
    ],
    "北勢線": [
      {
        "name": "七和",
        "code": "005769",
        "group": "005769",
        "lat": 35.06912,
        "lon": 136.61549
      },
      {
        "name": "在良",
        "code": "005797",
        "group": "005797",
        "lat": 35.06071,
        "lon": 136.643525
      },
      {
        "name": "大泉",
        "code": "005711",
        "group": "005711",
        "lat": 35.095205,
        "lon": 136.56999
      },
      {
        "name": "星川",
        "code": "005789",
        "group": "005789",
        "lat": 35.0641925,
        "lon": 136.6303375
      },
      {
        "name": "東員",
        "code": "005747",
        "group": "005747",
        "lat": 35.078155,
        "lon": 136.587065
      },
      {
        "name": "楚原",
        "code": "005664",
        "group": "005664",
        "lat": 35.110865000000004,
        "lon": 136.560305
      },
      {
        "name": "穴太",
        "code": "005758",
        "group": "005758",
        "lat": 35.07282,
        "lon": 136.60535
      },
      {
        "name": "蓮花寺",
        "code": "005802",
        "group": "005802",
        "lat": 35.059528,
        "lon": 136.6510615
      },
      {
        "name": "西別所",
        "code": "005801",
        "group": "005801",
        "lat": 35.059599999999996,
        "lon": 136.66564333333335
      },
      {
        "name": "西桑名",
        "code": "005785",
        "group": "005785",
        "lat": 35.06539,
        "lon": 136.68379499999998
      },
      {
        "name": "阿下喜",
        "code": "005540",
        "group": "005540",
        "lat": 35.146275,
        "lon": 136.519035
      },
      {
        "name": "馬道",
        "code": "005798",
        "group": "005798",
        "lat": 35.06061,
        "lon": 136.676405
      },
      {
        "name": "麻生田",
        "code": "005575",
        "group": "005575",
        "lat": 35.13359,
        "lon": 136.53561000000002
      }
    ],
    "近鉄連絡線": [
      {
        "name": "近鉄富田",
        "code": "005982",
        "group": "005982",
        "lat": 35.0064725,
        "lon": 136.64938
      }
    ]
  },
  "三陸鉄道": {
    "リアス線": [
      {
        "name": "一の渡",
        "code": "000801",
        "group": "000801",
        "lat": 39.686854999999994,
        "lon": 141.942665
      },
      {
        "name": "三陸",
        "code": "000946",
        "group": "000946",
        "lat": 39.117239999999995,
        "lon": 141.80997000000002
      },
      {
        "name": "両石",
        "code": "000897",
        "group": "000897",
        "lat": 39.308105,
        "lon": 141.88909
      },
      {
        "name": "久慈",
        "code": "000695",
        "group": "000694",
        "lat": 40.190505,
        "lon": 141.770845
      },
      {
        "name": "佐羽根",
        "code": "000788",
        "group": "000788",
        "lat": 39.71113333333333,
        "lon": 141.93588999999997
      },
      {
        "name": "八木沢・宮古短大",
        "code": "000826",
        "group": "000826",
        "lat": 39.61929888,
        "lon": 141.94636696999999
      },
      {
        "name": "十府ヶ浦海岸",
        "code": "000715",
        "group": "000715",
        "lat": 40.09682876,
        "lon": 141.82409351
      },
      {
        "name": "吉浜",
        "code": "000941",
        "group": "000941",
        "lat": 39.15115,
        "lon": 141.836435
      },
      {
        "name": "吉里吉里",
        "code": "000872",
        "group": "000872",
        "lat": 39.369524999999996,
        "lon": 141.938635
      },
      {
        "name": "唐丹",
        "code": "000936",
        "group": "000936",
        "lat": 39.20185,
        "lon": 141.8612
      },
      {
        "name": "堀内",
        "code": "000720",
        "group": "000720",
        "lat": 40.0519,
        "lon": 141.85949
      },
      {
        "name": "大槌",
        "code": "000876",
        "group": "000876",
        "lat": 39.356735,
        "lon": 141.90313
      },
      {
        "name": "宮古",
        "code": "000815",
        "group": "000814",
        "lat": 39.639894999999996,
        "lon": 141.947365
      },
      {
        "name": "山口団地",
        "code": "000812",
        "group": "000812",
        "lat": 39.646295499999994,
        "lon": 141.933242
      },
      {
        "name": "岩手船越",
        "code": "000860",
        "group": "000860",
        "lat": 39.431335000000004,
        "lon": 141.97404
      },
      {
        "name": "岩泉小本",
        "code": "000763",
        "group": "000763",
        "lat": 39.842765,
        "lon": 141.95845
      },
      {
        "name": "島越",
        "code": "000744",
        "group": "000744",
        "lat": 39.915724999999995,
        "lon": 141.939665
      },
      {
        "name": "平田",
        "code": "000930",
        "group": "000930",
        "lat": 39.245705,
        "lon": 141.886
      },
      {
        "name": "恋し浜",
        "code": "000952",
        "group": "000952",
        "lat": 39.074245000000005,
        "lon": 141.816025
      },
      {
        "name": "払川",
        "code": "000839",
        "group": "000839",
        "lat": 39.56439734,
        "lon": 141.93282432
      },
      {
        "name": "摂待",
        "code": "000768",
        "group": "000768",
        "lat": 39.80948,
        "lon": 141.962155
      },
      {
        "name": "新田老",
        "code": "000779",
        "group": "000779",
        "lat": 39.73564949666667,
        "lon": 141.96727587333336
      },
      {
        "name": "普代",
        "code": "000728",
        "group": "000728",
        "lat": 40.00270333333333,
        "lon": 141.88630333333333
      },
      {
        "name": "津軽石",
        "code": "000835",
        "group": "000835",
        "lat": 39.5815,
        "lon": 141.93778500000002
      },
      {
        "name": "浪板海岸",
        "code": "000870",
        "group": "000870",
        "lat": 39.383555,
        "lon": 141.93511
      },
      {
        "name": "甫嶺",
        "code": "000950",
        "group": "000950",
        "lat": 39.09326,
        "lon": 141.806715
      },
      {
        "name": "田老",
        "code": "000780",
        "group": "000780",
        "lat": 39.73185,
        "lon": 141.964655
      },
      {
        "name": "田野畑",
        "code": "000740",
        "group": "000740",
        "lat": 39.93427,
        "lon": 141.93379
      },
      {
        "name": "白井海岸",
        "code": "000725",
        "group": "000725",
        "lat": 40.032585,
        "lon": 141.883245
      },
      {
        "name": "盛",
        "code": "000951",
        "group": "000951",
        "lat": 39.085544999999996,
        "lon": 141.71089999999998
      },
      {
        "name": "磯鶏",
        "code": "000819",
        "group": "000819",
        "lat": 39.63041,
        "lon": 141.960935
      },
      {
        "name": "綾里",
        "code": "000956",
        "group": "000956",
        "lat": 39.05418,
        "lon": 141.799355
      },
      {
        "name": "織笠",
        "code": "000857",
        "group": "000857",
        "lat": 39.453761815,
        "lon": 141.95526509
      },
      {
        "name": "豊間根",
        "code": "000846",
        "group": "000846",
        "lat": 39.53424,
        "lon": 141.924715
      },
      {
        "name": "野田玉川",
        "code": "000716",
        "group": "000716",
        "lat": 40.082755,
        "lon": 141.82889999999998
      },
      {
        "name": "釜石",
        "code": "000920",
        "group": "000919",
        "lat": 39.273300000000006,
        "lon": 141.872745
      },
      {
        "name": "陸中宇部",
        "code": "000705",
        "group": "000705",
        "lat": 40.13243,
        "lon": 141.785945
      },
      {
        "name": "陸中山田",
        "code": "000856",
        "group": "000856",
        "lat": 39.463589999999996,
        "lon": 141.9513
      },
      {
        "name": "陸中野田",
        "code": "000709",
        "group": "000709",
        "lat": 40.116075,
        "lon": 141.81909000000002
      },
      {
        "name": "陸前赤崎",
        "code": "000954",
        "group": "000954",
        "lat": 39.06852,
        "lon": 141.74105500000002
      },
      {
        "name": "鵜住居",
        "code": "000884",
        "group": "000884",
        "lat": 39.326735,
        "lon": 141.887905
      }
    ]
  },
  "上信電鉄": {
    "上信線": [
      {
        "name": "上州一ノ宮",
        "code": "002485",
        "group": "002485",
        "lat": 36.25311,
        "lon": 138.86406333333335
      },
      {
        "name": "上州七日市",
        "code": "002474",
        "group": "002474",
        "lat": 36.25863,
        "lon": 138.87456
      },
      {
        "name": "上州富岡",
        "code": "002468",
        "group": "002468",
        "lat": 36.26051,
        "lon": 138.891935
      },
      {
        "name": "上州新屋",
        "code": "002480",
        "group": "002480",
        "lat": 36.256035,
        "lon": 138.95182499999999
      },
      {
        "name": "上州福島",
        "code": "002478",
        "group": "002478",
        "lat": 36.25641,
        "lon": 138.929485
      },
      {
        "name": "下仁田",
        "code": "002536",
        "group": "002536",
        "lat": 36.210505,
        "lon": 138.78668
      },
      {
        "name": "佐野のわたし",
        "code": "002422",
        "group": "002422",
        "lat": 36.302517835,
        "lon": 139.01829207
      },
      {
        "name": "千平",
        "code": "002508",
        "group": "002508",
        "lat": 36.230028571428576,
        "lon": 138.79854428571429
      },
      {
        "name": "南蛇井",
        "code": "002500",
        "group": "002500",
        "lat": 36.238175,
        "lon": 138.81388
      },
      {
        "name": "南高崎",
        "code": "002409",
        "group": "002409",
        "lat": 36.31242,
        "lon": 139.012355
      },
      {
        "name": "吉井",
        "code": "002479",
        "group": "002479",
        "lat": 36.25609,
        "lon": 138.98437
      },
      {
        "name": "山名",
        "code": "002452",
        "group": "002452",
        "lat": 36.277705,
        "lon": 139.0381
      },
      {
        "name": "東富岡",
        "code": "002467",
        "group": "002467",
        "lat": 36.260819999999995,
        "lon": 138.901685
      },
      {
        "name": "根小屋",
        "code": "002441",
        "group": "002441",
        "lat": 36.29115,
        "lon": 139.019055
      },
      {
        "name": "神農原",
        "code": "002497",
        "group": "002497",
        "lat": 36.24259,
        "lon": 138.843845
      },
      {
        "name": "西吉井",
        "code": "002481",
        "group": "002481",
        "lat": 36.25578,
        "lon": 138.965865
      },
      {
        "name": "西富岡",
        "code": "002469",
        "group": "002469",
        "lat": 36.26016,
        "lon": 138.88278000000003
      },
      {
        "name": "西山名",
        "code": "002461",
        "group": "002461",
        "lat": 36.27082,
        "lon": 139.03206999999998
      },
      {
        "name": "馬庭",
        "code": "002465",
        "group": "002465",
        "lat": 36.26147,
        "lon": 139.00964
      },
      {
        "name": "高崎",
        "code": "002393",
        "group": "002389",
        "lat": 36.319905,
        "lon": 139.012255
      },
      {
        "name": "高崎商科大学前",
        "code": "002445",
        "group": "002445",
        "lat": 36.284459999999996,
        "lon": 139.029385
      }
    ]
  },
  "上毛電気鉄道": {
    "上毛線": [
      {
        "name": "三俣",
        "code": "002282",
        "group": "002282",
        "lat": 36.393725,
        "lon": 139.0892
      },
      {
        "name": "上泉",
        "code": "002279",
        "group": "002279",
        "lat": 36.39418,
        "lon": 139.10656
      },
      {
        "name": "中央前橋",
        "code": "002288",
        "group": "002288",
        "lat": 36.390924999999996,
        "lon": 139.075365
      },
      {
        "name": "丸山下",
        "code": "002244",
        "group": "002244",
        "lat": 36.41681,
        "lon": 139.32130999999998
      },
      {
        "name": "北原",
        "code": "002253",
        "group": "002253",
        "lat": 36.41364,
        "lon": 139.18461000000002
      },
      {
        "name": "城東",
        "code": "002287",
        "group": "002287",
        "lat": 36.391175000000004,
        "lon": 139.0811625
      },
      {
        "name": "大胡",
        "code": "002254",
        "group": "002254",
        "lat": 36.412695,
        "lon": 139.15629
      },
      {
        "name": "天王宿",
        "code": "002249",
        "group": "002249",
        "lat": 36.414925,
        "lon": 139.30815
      },
      {
        "name": "富士山下",
        "code": "002251",
        "group": "002251",
        "lat": 36.413995,
        "lon": 139.315845
      },
      {
        "name": "心臓血管センター",
        "code": "002265",
        "group": "002265",
        "lat": 36.40525,
        "lon": 139.12899000000002
      },
      {
        "name": "新屋",
        "code": "002252",
        "group": "002252",
        "lat": 36.413700000000006,
        "lon": 139.19659000000001
      },
      {
        "name": "新川",
        "code": "002241",
        "group": "002241",
        "lat": 36.41823,
        "lon": 139.25759250000002
      },
      {
        "name": "新里",
        "code": "002240",
        "group": "002240",
        "lat": 36.418549999999996,
        "lon": 139.236975
      },
      {
        "name": "東新川",
        "code": "002237",
        "group": "002237",
        "lat": 36.421975,
        "lon": 139.26769000000002
      },
      {
        "name": "桐生球場前",
        "code": "002239",
        "group": "002239",
        "lat": 36.419180000000004,
        "lon": 139.29787333333334
      },
      {
        "name": "樋越",
        "code": "002248",
        "group": "002248",
        "lat": 36.415485000000004,
        "lon": 139.173275
      },
      {
        "name": "江木",
        "code": "002263",
        "group": "002263",
        "lat": 36.4072,
        "lon": 139.133395
      },
      {
        "name": "片貝",
        "code": "002281",
        "group": "002281",
        "lat": 36.393895,
        "lon": 139.09567
      },
      {
        "name": "粕川",
        "code": "002245",
        "group": "002245",
        "lat": 36.41681,
        "lon": 139.21091
      },
      {
        "name": "膳",
        "code": "002242",
        "group": "002242",
        "lat": 36.41695,
        "lon": 139.22206
      },
      {
        "name": "西桐生",
        "code": "002250",
        "group": "002250",
        "lat": 36.4140925,
        "lon": 139.33283500000002
      },
      {
        "name": "赤坂",
        "code": "002271",
        "group": "002271",
        "lat": 36.397234999999995,
        "lon": 139.11734
      },
      {
        "name": "赤城",
        "code": "002232",
        "group": "002231",
        "lat": 36.425619999999995,
        "lon": 139.27678
      }
    ]
  },
  "上田電鉄": {
    "別所線": [
      {
        "name": "三好町",
        "code": "002285",
        "group": "002285",
        "lat": 36.39168,
        "lon": 138.23554000000001
      },
      {
        "name": "上田",
        "code": "002275",
        "group": "002275",
        "lat": 36.39575333333333,
        "lon": 138.25026
      },
      {
        "name": "上田原",
        "code": "002289",
        "group": "002289",
        "lat": 36.39039,
        "lon": 138.221715
      },
      {
        "name": "下之郷",
        "code": "002326",
        "group": "002326",
        "lat": 36.363235,
        "lon": 138.217195
      },
      {
        "name": "中塩田",
        "code": "002327",
        "group": "002327",
        "lat": 36.36323,
        "lon": 138.204665
      },
      {
        "name": "中野",
        "code": "002331",
        "group": "002331",
        "lat": 36.360510000000005,
        "lon": 138.19332500000002
      },
      {
        "name": "八木沢",
        "code": "002338",
        "group": "002338",
        "lat": 36.358385,
        "lon": 138.17576000000003
      },
      {
        "name": "別所温泉",
        "code": "002346",
        "group": "002346",
        "lat": 36.3532,
        "lon": 138.16188
      },
      {
        "name": "城下",
        "code": "002284",
        "group": "002284",
        "lat": 36.392465,
        "lon": 138.24264499999998
      },
      {
        "name": "塩田町",
        "code": "002330",
        "group": "002330",
        "lat": 36.360905,
        "lon": 138.19843
      },
      {
        "name": "大学前",
        "code": "002316",
        "group": "002316",
        "lat": 36.37130500000001,
        "lon": 138.21513499999998
      },
      {
        "name": "寺下",
        "code": "002295",
        "group": "002295",
        "lat": 36.383894999999995,
        "lon": 138.216315
      },
      {
        "name": "神畑",
        "code": "002305",
        "group": "002305",
        "lat": 36.37784499999999,
        "lon": 138.216945
      },
      {
        "name": "舞田",
        "code": "002333",
        "group": "002333",
        "lat": 36.359645,
        "lon": 138.182785
      },
      {
        "name": "赤坂上",
        "code": "002286",
        "group": "002286",
        "lat": 36.391345,
        "lon": 138.22717
      }
    ]
  },
  "丹後海陸交通": {
    "天橋立鋼索鉄道": [
      {
        "name": "傘松",
        "code": "004272",
        "group": "004272",
        "lat": 35.586205,
        "lon": 135.195825
      },
      {
        "name": "府中",
        "code": "004277",
        "group": "004277",
        "lat": 35.583365,
        "lon": 135.195275
      }
    ]
  },
  "九州旅客鉄道": {
    "三角線": [
      {
        "name": "三角",
        "code": "009862",
        "group": "009862",
        "lat": 32.60788,
        "lon": 130.46973
      },
      {
        "name": "住吉",
        "code": "009849",
        "group": "009849",
        "lat": 32.7020375,
        "lon": 130.5979325
      },
      {
        "name": "宇土",
        "code": "009850",
        "group": "009850",
        "lat": 32.694348500000004,
        "lon": 130.6690705
      },
      {
        "name": "波多浦",
        "code": "009861",
        "group": "009861",
        "lat": 32.61524,
        "lon": 130.48792666666665
      },
      {
        "name": "石打ダム",
        "code": "009859",
        "group": "009859",
        "lat": 32.64241666666666,
        "lon": 130.50681666666665
      },
      {
        "name": "網田",
        "code": "009855",
        "group": "009855",
        "lat": 32.66744666666667,
        "lon": 130.54684
      },
      {
        "name": "緑川",
        "code": "009852",
        "group": "009852",
        "lat": 32.69393,
        "lon": 130.63135
      },
      {
        "name": "肥後長浜",
        "code": "009853",
        "group": "009853",
        "lat": 32.69074666666666,
        "lon": 130.56064999999998
      },
      {
        "name": "赤瀬",
        "code": "009857",
        "group": "009857",
        "lat": 32.65315333333333,
        "lon": 130.51011000000003
      }
    ],
    "久大線": [
      {
        "name": "うきは",
        "code": "009371",
        "group": "009371",
        "lat": 33.33504,
        "lon": 130.78915
      },
      {
        "name": "久留米",
        "code": "009383",
        "group": "009383",
        "lat": 33.3207285,
        "lon": 130.501372
      },
      {
        "name": "久留米大学前",
        "code": "009398",
        "group": "009398",
        "lat": 33.31079666666667,
        "lon": 130.54761
      },
      {
        "name": "久留米高校前",
        "code": "009406",
        "group": "009406",
        "lat": 33.298384999999996,
        "lon": 130.51709499999998
      },
      {
        "name": "光岡",
        "code": "009378",
        "group": "009378",
        "lat": 33.327605,
        "lon": 130.91992
      },
      {
        "name": "北山田",
        "code": "009426",
        "group": "009426",
        "lat": 33.28202,
        "lon": 131.100925
      },
      {
        "name": "南久留米",
        "code": "009403",
        "group": "009403",
        "lat": 33.302795,
        "lon": 130.532165
      },
      {
        "name": "南大分",
        "code": "009497",
        "group": "009497",
        "lat": 33.21401,
        "lon": 131.586285
      },
      {
        "name": "南由布",
        "code": "009469",
        "group": "009469",
        "lat": 33.24219,
        "lon": 131.333355
      },
      {
        "name": "古国府",
        "code": "009492",
        "group": "009492",
        "lat": 33.22064,
        "lon": 131.608305
      },
      {
        "name": "向之原",
        "code": "009519",
        "group": "009519",
        "lat": 33.19668,
        "lon": 131.514065
      },
      {
        "name": "善導寺",
        "code": "009386",
        "group": "009386",
        "lat": 33.320025,
        "lon": 130.60874
      },
      {
        "name": "夜明",
        "code": "009387",
        "group": "009387",
        "lat": 33.31959500000001,
        "lon": 130.866215
      },
      {
        "name": "大分",
        "code": "009479",
        "group": "009479",
        "lat": 33.2326,
        "lon": 131.606695
      },
      {
        "name": "天ヶ瀬",
        "code": "009457",
        "group": "009457",
        "lat": 33.25484333333333,
        "lon": 131.02382
      },
      {
        "name": "天神山",
        "code": "009539",
        "group": "009539",
        "lat": 33.187025,
        "lon": 131.438905
      },
      {
        "name": "小野屋",
        "code": "009541",
        "group": "009541",
        "lat": 33.185165,
        "lon": 131.452605
      },
      {
        "name": "庄内",
        "code": "009542",
        "group": "009542",
        "lat": 33.1851,
        "lon": 131.40191
      },
      {
        "name": "引治",
        "code": "009483",
        "group": "009483",
        "lat": 33.228995,
        "lon": 131.183975
      },
      {
        "name": "御井",
        "code": "009396",
        "group": "009396",
        "lat": 33.312664999999996,
        "lon": 130.56266
      },
      {
        "name": "恵良",
        "code": "009456",
        "group": "009456",
        "lat": 33.25504,
        "lon": 131.17442
      },
      {
        "name": "日田",
        "code": "009391",
        "group": "009391",
        "lat": 33.317885000000004,
        "lon": 130.938135
      },
      {
        "name": "杉河内",
        "code": "009445",
        "group": "009445",
        "lat": 33.264340000000004,
        "lon": 131.065455
      },
      {
        "name": "湯平",
        "code": "009517",
        "group": "009517",
        "lat": 33.19734,
        "lon": 131.354305
      },
      {
        "name": "田主丸",
        "code": "009366",
        "group": "009366",
        "lat": 33.3388,
        "lon": 130.69245
      },
      {
        "name": "由布院",
        "code": "009447",
        "group": "009447",
        "lat": 33.262451999999996,
        "lon": 131.354916
      },
      {
        "name": "筑後吉井",
        "code": "009365",
        "group": "009365",
        "lat": 33.340955,
        "lon": 130.752825
      },
      {
        "name": "筑後大石",
        "code": "009356",
        "group": "009356",
        "lat": 33.347184999999996,
        "lon": 130.8169
      },
      {
        "name": "筑後草野",
        "code": "009382",
        "group": "009382",
        "lat": 33.322105,
        "lon": 130.64218
      },
      {
        "name": "豊後三芳",
        "code": "009401",
        "group": "009401",
        "lat": 33.305904999999996,
        "lon": 130.951505
      },
      {
        "name": "豊後中川",
        "code": "009421",
        "group": "009421",
        "lat": 33.284459999999996,
        "lon": 131.005875
      },
      {
        "name": "豊後中村",
        "code": "009487",
        "group": "009487",
        "lat": 33.225785,
        "lon": 131.20763499999998
      },
      {
        "name": "豊後国分",
        "code": "009524",
        "group": "009524",
        "lat": 33.195080000000004,
        "lon": 131.551265
      },
      {
        "name": "豊後森",
        "code": "009425",
        "group": "009425",
        "lat": 33.28255,
        "lon": 131.15569499999998
      },
      {
        "name": "賀来",
        "code": "009499",
        "group": "009499",
        "lat": 33.21307,
        "lon": 131.56262
      },
      {
        "name": "野矢",
        "code": "009470",
        "group": "009470",
        "lat": 33.240385,
        "lon": 131.2519
      },
      {
        "name": "鬼瀬",
        "code": "009522",
        "group": "009522",
        "lat": 33.19571500000001,
        "lon": 131.48547000000002
      }
    ],
    "九州新幹線": [
      {
        "name": "久留米",
        "code": "009385",
        "group": "009383",
        "lat": 33.320653,
        "lon": 130.501079
      },
      {
        "name": "出水",
        "code": "009929",
        "group": "009929",
        "lat": 32.0894275,
        "lon": 130.3584575
      },
      {
        "name": "博多",
        "code": "009033",
        "group": "009033",
        "lat": 33.589574999999996,
        "lon": 130.421175
      },
      {
        "name": "川内",
        "code": "009986",
        "group": "009984",
        "lat": 31.813515000000002,
        "lon": 130.312405
      },
      {
        "name": "新八代",
        "code": "009870",
        "group": "009869",
        "lat": 32.517586,
        "lon": 130.635033
      },
      {
        "name": "新大牟田",
        "code": "009591",
        "group": "009591",
        "lat": 33.071315999999996,
        "lon": 130.4887535
      },
      {
        "name": "新水俣",
        "code": "009919",
        "group": "009918",
        "lat": 32.210645,
        "lon": 130.428765
      },
      {
        "name": "新玉名",
        "code": "009638",
        "group": "009638",
        "lat": 32.942709,
        "lon": 130.57340833333333
      },
      {
        "name": "新鳥栖",
        "code": "009331",
        "group": "009331",
        "lat": 33.37052666666667,
        "lon": 130.49104233333333
      },
      {
        "name": "熊本",
        "code": "009779",
        "group": "009785",
        "lat": 32.79053866666667,
        "lon": 130.68868600000002
      },
      {
        "name": "筑後船小屋",
        "code": "009547",
        "group": "009546",
        "lat": 33.17797733333333,
        "lon": 130.492433
      },
      {
        "name": "鹿児島中央",
        "code": "010049",
        "group": "010047",
        "lat": 31.583775000000003,
        "lon": 130.54102999999998
      }
    ],
    "佐世保線": [
      {
        "name": "三河内",
        "code": "009563",
        "group": "009563",
        "lat": 33.150306666666665,
        "lon": 129.8290966666667
      },
      {
        "name": "三間坂",
        "code": "009527",
        "group": "009527",
        "lat": 33.19473,
        "lon": 129.94778
      },
      {
        "name": "上有田",
        "code": "009530",
        "group": "009530",
        "lat": 33.19031,
        "lon": 129.90532000000002
      },
      {
        "name": "佐世保",
        "code": "009556",
        "group": "009556",
        "lat": 33.16372333333333,
        "lon": 129.72663333333333
      },
      {
        "name": "北方",
        "code": "009496",
        "group": "009496",
        "lat": 33.21622,
        "lon": 130.08327
      },
      {
        "name": "大塔",
        "code": "009564",
        "group": "009564",
        "lat": 33.149215,
        "lon": 129.78205
      },
      {
        "name": "大町",
        "code": "009502",
        "group": "009502",
        "lat": 33.212445,
        "lon": 130.10648
      },
      {
        "name": "日宇",
        "code": "009560",
        "group": "009560",
        "lat": 33.15742,
        "lon": 129.758305
      },
      {
        "name": "早岐",
        "code": "009568",
        "group": "009568",
        "lat": 33.133895,
        "lon": 129.7993125
      },
      {
        "name": "有田",
        "code": "009543",
        "group": "009543",
        "lat": 33.18374,
        "lon": 129.88186000000002
      },
      {
        "name": "武雄温泉",
        "code": "009518",
        "group": "009518",
        "lat": 33.196690000000004,
        "lon": 130.023475
      },
      {
        "name": "永尾",
        "code": "009528",
        "group": "009528",
        "lat": 33.193394999999995,
        "lon": 129.980435
      },
      {
        "name": "江北",
        "code": "009494",
        "group": "009494",
        "lat": 33.21911,
        "lon": 130.16111
      },
      {
        "name": "高橋",
        "code": "009510",
        "group": "009510",
        "lat": 33.208095,
        "lon": 130.042375
      }
    ],
    "吉都線": [
      {
        "name": "えびの",
        "code": "009938",
        "group": "009938",
        "lat": 32.04227,
        "lon": 130.81617
      },
      {
        "name": "えびの上江",
        "code": "009939",
        "group": "009939",
        "lat": 32.03561,
        "lon": 130.85003
      },
      {
        "name": "えびの飯野",
        "code": "009941",
        "group": "009941",
        "lat": 32.030325000000005,
        "lon": 130.871195
      },
      {
        "name": "万ヶ塚",
        "code": "009982",
        "group": "009982",
        "lat": 31.817175,
        "lon": 131.06395500000002
      },
      {
        "name": "京町温泉",
        "code": "009937",
        "group": "009937",
        "lat": 32.045415,
        "lon": 130.767925
      },
      {
        "name": "吉松",
        "code": "009944",
        "group": "009944",
        "lat": 32.011865,
        "lon": 130.738135
      },
      {
        "name": "小林",
        "code": "009948",
        "group": "009948",
        "lat": 31.99072,
        "lon": 130.976095
      },
      {
        "name": "広原",
        "code": "009951",
        "group": "009951",
        "lat": 31.957785,
        "lon": 130.984875
      },
      {
        "name": "日向前田",
        "code": "009958",
        "group": "009958",
        "lat": 31.90864,
        "lon": 131.040345
      },
      {
        "name": "日向庄内",
        "code": "009999",
        "group": "009999",
        "lat": 31.762124999999997,
        "lon": 131.0615
      },
      {
        "name": "東高崎",
        "code": "009974",
        "group": "009974",
        "lat": 31.84097,
        "lon": 131.06502
      },
      {
        "name": "西小林",
        "code": "009946",
        "group": "009946",
        "lat": 32.00947,
        "lon": 130.921795
      },
      {
        "name": "谷頭",
        "code": "009993",
        "group": "009993",
        "lat": 31.789195,
        "lon": 131.054005
      },
      {
        "name": "都城",
        "code": "010009",
        "group": "010009",
        "lat": 31.736600000000003,
        "lon": 131.07401
      },
      {
        "name": "高原",
        "code": "009955",
        "group": "009955",
        "lat": 31.926845,
        "lon": 130.99900000000002
      },
      {
        "name": "高崎新田",
        "code": "009967",
        "group": "009967",
        "lat": 31.875884999999997,
        "lon": 131.06265000000002
      },