{"010112":{"code":"010112","name":"二月田","isMatched":true,"company":28,"line":52,"lat":31.25432,"lon":130.6301,"length":77,"name_kr":"니가쓰덴"},"010127":{"code":"010127","name":"古島","isMatched":true,"company":117,"line":401,"lat":26.23064,"lon":127.70294,"length":71,"name_kr":"후루지마"},"004091":{"code":"004091","name":"お台場海浜公園","isMatched":true,"company":11,"line":18,"lat":35.629805,"lon":139.77853,"length":77,"name_kr":"오다이바카이힌코엔"},"004128":{"code":"004128","name":"東京国際クルーズターミナル","isMatched":true,"company":11,"line":18,"lat":35.621357,"lon":139.773103,"length":72,"name_kr":"도쿄국제크루즈터미널"},"004144":{"code":"004144","name":"テレコムセンター","isMatched":true,"company":11,"line":18,"lat":35.617725,"lon":139.779665,"length":75,"name_kr":"텔레컴 센터"},"003896":{"code":"003896","name":"汐留","isMatched":true,"company":11,"line":18,"lat":35.662985,"lon":139.760075,"length":83,"name_kr":"시오도메"},"003887":{"code":"003887","name":"汐留","isMatched":true,"company":101,"line":280,"lat":35.66499,"lon":139.761332,"length":366,"name_kr":"시오도메"},"004112":{"code":"004112","name":"台場","isMatched":true,"company":11,"line":18,"lat":35.62587,"lon":139.771375,"length":75,"name_kr":"다이바"},"004064":{"code":"004064","name":"有明","isMatched":true,"company":11,"line":18,"lat":35.63455,"lon":139.79334,"length":71,"name_kr":"아리아케"},"004087":{"code":"004087","name":"東京ビッグサイト","isMatched":true,"company":11,"line":18,"lat":35.63021,"lon":139.7913,"length":152,"name_kr":"도쿄빅사이트"},"003882":{"code":"003882","name":"新橋","isMatched":true,"company":11,"line":18,"lat":35.665583,"lon":139.759587,"length":234,"name_kr":"신바시"},"003864":{"code":"003864","name":"新橋","isMatched":true,"company":99,"line":271,"lat":35.667488,"lon":139.758192,"length":165,"name_kr":"신바시"},"003888":{"code":"003888","name":"新橋","isMatched":true,"company":101,"line":281,"lat":35.664915,"lon":139.759017,"length":151,"name_kr":"신바시"},"003872":{"code":"003872","name":"新橋","isMatched":true,"company":103,"line":330,"lat":35.66639,"lon":139.7582,"length":362,"name_kr":"신바시"},"003958":{"code":"003958","name":"竹芝","isMatched":true,"company":11,"line":18,"lat":35.654065,"lon":139.762015,"length":75,"name_kr":"다케시바"},"004030":{"code":"004030","name":"芝浦ふ頭","isMatched":true,"company":11,"line":18,"lat":35.64222,"lon":139.75787,"length":60,"name_kr":"시바우라후토"},"003979":{"code":"003979","name":"日の出","isMatched":true,"company":11,"line":18,"lat":35.64926,"lon":139.75916,"length":83,"name_kr":"히노데"},"004119":{"code":"004119","name":"青海","isMatched":true,"company":11,"line":18,"lat":35.6248,"lon":139.781315,"length":130,"name_kr":"아오미"},"003981":{"code":"003981","name":"新豊洲","isMatched":true,"company":11,"line":18,"lat":35.64871,"lon":139.790115,"length":62,"name_kr":"신토요스"},"004001":{"code":"004001","name":"市場前","isMatched":true,"company":11,"line":18,"lat":35.64569,"lon":139.78565,"length":79,"name_kr":"시조마에"},"004037":{"code":"004037","name":"有明テニスの森","isMatched":true,"company":11,"line":18,"lat":35.63998,"lon":139.788895,"length":74,"name_kr":"아리아케테니스노모리"},"003961":{"code":"003961","name":"豊洲","isMatched":true,"company":11,"line":18,"lat":35.653705,"lon":139.795435,"length":97,"name_kr":"도요스"},"003951":{"code":"003951","name":"豊洲","isMatched":true,"company":99,"line":276,"lat":35.655128,"lon":139.79602,"length":217,"name_kr":"도요스"},"007215":{"code":"007215","name":"新石切","isMatched":true,"company":152,"line":525,"lat":34.680097,"lon":135.641097,"length":163,"name_kr":"신이시키리"},"007233":{"code":"007233","name":"長田","isMatched":true,"company":152,"line":525,"lat":34.678755,"lon":135.591965,"length":156,"name_kr":"나가타"},"007232":{"code":"007232","name":"長田","isMatched":true,"company":74,"line":212,"lat":34.678755,"lon":135.591965,"length":156,"name_kr":"나가타"},"007213":{"code":"007213","name":"吉田","isMatched":true,"company":152,"line":525,"lat":34.680335,"lon":135.624515,"length":199,"name_kr":"요시다"},"007234":{"code":"007234","name":"荒本","isMatched":true,"company":152,"line":525,"lat":34.678625,"lon":135.60499,"length":86,"name_kr":"아라모토"},"007122":{"code":"007122","name":"生駒","isMatched":true,"company":152,"line":525,"lat":34.6931,"lon":135.698055,"length":217,"name_kr":"이코마"},"007124":{"code":"007124","name":"生駒","isMatched":true,"company":152,"line":539,"lat":34.693033,"lon":135.69821,"length":188,"name_kr":"이코마"},"007123":{"code":"007123","name":"生駒","isMatched":true,"company":152,"line":533,"lat":34.6931,"lon":135.698055,"length":217,"name_kr":"이코마"},"006945":{"code":"006945","name":"学研奈良登美ヶ丘","isMatched":true,"company":152,"line":525,"lat":34.726385,"lon":135.74916,"length":154,"name_kr":"갓켄나라토미가오카"},"006966":{"code":"006966","name":"白庭台","isMatched":true,"company":152,"line":525,"lat":34.72103,"lon":135.71683,"length":105,"name_kr":"시라니와다이"},"006950":{"code":"006950","name":"学研北生駒","isMatched":true,"company":152,"line":525,"lat":34.724845,"lon":135.72342,"length":126,"name_kr":"갓켄키타이코마"},"007203":{"code":"007203","name":"ポートターミナル","isMatched":true,"company":130,"line":425,"lat":34.681455,"lon":135.20222,"length":72,"name_kr":"포트 터미널"},"007288":{"code":"007288","name":"中埠頭","isMatched":true,"company":130,"line":425,"lat":34.669285,"lon":135.21717,"length":69,"name_kr":"나카후토"},"007340":{"code":"007340","name":"市民広場","isMatched":true,"company":130,"line":425,"lat":34.664905,"lon":135.21244,"length":75,"name_kr":"시민히로바"},"007153":{"code":"007153","name":"貿易センター","isMatched":true,"company":130,"line":425,"lat":34.689365,"lon":135.19946,"length":66,"name_kr":"무역 센터"},"007108":{"code":"007108","name":"三宮","isMatched":true,"company":130,"line":425,"lat":34.69451,"lon":135.195295,"length":59,"name_kr":"산노미야"},"007115":{"code":"007115","name":"三宮","isMatched":true,"company":129,"line":421,"lat":34.693885,"lon":135.192415,"length":67,"name_kr":"산노미야"},"007271":{"code":"007271","name":"北埠頭","isMatched":true,"company":130,"line":425,"lat":34.673565,"lon":135.21451,"length":69,"name_kr":"기타후토"},"007343":{"code":"007343","name":"南公園","isMatched":true,"company":130,"line":425,"lat":34.66467,"lon":135.21707,"length":64,"name_kr":"미나미코엔"},"007289":{"code":"007289","name":"みなとじま","isMatched":true,"company":130,"line":425,"lat":34.669065,"lon":135.209995,"length":76,"name_kr":"미나토지마"},"007276":{"code":"007276","name":"中公園","isMatched":true,"company":130,"line":425,"lat":34.673095,"lon":135.20752,"length":71,"name_kr":"나카코엔"},"007381":{"code":"007381","name":"医療センター","isMatched":true,"company":130,"line":425,"lat":34.65852,"lon":135.21641,"length":55,"name_kr":"이료 센터"},"007403":{"code":"007403","name":"計算科学センター","isMatched":true,"company":130,"line":425,"lat":34.65481,"lon":135.221535,"length":61,"name_kr":"게이산카가쿠센터"},"007482":{"code":"007482","name":"神戸空港","isMatched":true,"company":130,"line":425,"lat":34.63735,"lon":135.228975,"length":94,"name_kr":"고베 공항"},"001838":{"code":"001838","name":"岩瀬浜","isMatched":true,"company":77,"line":225,"lat":36.76127,"lon":137.23411,"length":73,"name_kr":"이와세하마"},"001843":{"code":"001843","name":"競輪場前","isMatched":true,"company":77,"line":225,"lat":36.75749,"lon":137.233945,"length":67,"name_kr":"게이린조마에"},"001852":{"code":"001852","name":"東岩瀬","isMatched":true,"company":77,"line":225,"lat":36.751945,"lon":137.230505,"length":78,"name_kr":"히가시이와세"},"001917":{"code":"001917","name":"インテック本社前","isMatched":true,"company":77,"line":225,"lat":36.703625,"lon":137.216415,"length":48,"name_kr":"인테크혼샤마에"},"001858":{"code":"001858","name":"萩浦小学校前","isMatched":true,"company":77,"line":225,"lat":36.74804,"lon":137.228363,"length":83,"name_kr":"하기우라쇼갓코마에"},"001868":{"code":"001868","name":"蓮町（馬場記念公園前）","isMatched":true,"company":77,"line":225,"lat":36.742215,"lon":137.22759,"length":77,"name_kr":"하스마치(바바키넨코엔마에)"},"001879":{"code":"001879","name":"犬島新町","isMatched":true,"company":77,"line":225,"lat":36.735095,"lon":137.22663,"length":86,"name_kr":"이누지마신마치"},"001884":{"code":"001884","name":"城川原","isMatched":true,"company":77,"line":225,"lat":36.73113,"lon":137.2261,"length":74,"name_kr":"시로가와라"},"001893":{"code":"001893","name":"越中中島","isMatched":true,"company":77,"line":225,"lat":36.722195,"lon":137.224895,"length":77,"name_kr":"엣추나카지마"},"001900":{"code":"001900","name":"粟島（大阪屋ショップ前）","isMatched":true,"company":77,"line":225,"lat":36.719145,"lon":137.22482,"length":70,"name_kr":"아와지마(오사카야숍마에)"},"001906":{"code":"001906","name":"下奥井","isMatched":true,"company":77,"line":225,"lat":36.71192,"lon":137.22459,"length":83,"name_kr":"시모오쿠이"},"001918":{"code":"001918","name":"奥田中学校前","isMatched":true,"company":77,"line":225,"lat":36.70357,"lon":137.223605,"length":58,"name_kr":"오쿠다추갓코마에"},"001924":{"code":"001924","name":"富山駅","isMatched":true,"company":77,"line":225,"lat":36.701755,"lon":137.212997,"length":70,"name_kr":"도야마"},"001923":{"code":"001923","name":"富山駅","isMatched":true,"company":77,"line":227,"lat":36.701755,"lon":137.212997,"length":70,"name_kr":"도야마"},"000794":{"code":"000794","name":"盛岡","isMatched":true,"company":13,"line":20,"lat":39.701195,"lon":141.136375,"length":437,"name_kr":"모리오카"},"000792":{"code":"000792","name":"盛岡","isMatched":true,"company":103,"line":321,"lat":39.701195,"lon":141.136375,"length":437,"name_kr":"모리오카"},"000791":{"code":"000791","name":"盛岡","isMatched":true,"company":103,"line":341,"lat":39.70155,"lon":141.13653,"length":408,"name_kr":"모리오카"},"000790":{"code":"000790","name":"盛岡","isMatched":true,"company":103,"line":328,"lat":39.70155,"lon":141.13653,"length":408,"name_kr":"모리오카"},"000793":{"code":"000793","name":"盛岡","isMatched":true,"company":103,"line":329,"lat":39.701195,"lon":141.136375,"length":437,"name_kr":"모리오카"},"000727":{"code":"000727","name":"御堂","isMatched":true,"company":13,"line":20,"lat":40.00436,"lon":141.23705,"length":76,"name_kr":"미도"},"000668":{"code":"000668","name":"二戸","isMatched":true,"company":13,"line":20,"lat":40.25983,"lon":141.285985,"length":263,"name_kr":"니노헤"},"000669":{"code":"000669","name":"二戸","isMatched":true,"company":103,"line":328,"lat":40.259775,"lon":141.28559,"length":310,"name_kr":"니노헤"},"000698":{"code":"000698","name":"小鳥谷","isMatched":true,"company":13,"line":20,"lat":40.171117,"lon":141.307737,"length":280,"name_kr":"고즈야"},"000764":{"code":"000764","name":"渋民","isMatched":true,"company":13,"line":20,"lat":39.834745,"lon":141.15423,"length":193,"name_kr":"시부타미"},"000662":{"code":"000662","name":"斗米","isMatched":true,"company":13,"line":20,"lat":40.285607,"lon":141.290913,"length":146,"name_kr":"토마이 "},"000734":{"code":"000734","name":"いわて沼宮内","isMatched":true,"company":13,"line":20,"lat":39.96059,"lon":141.217075,"length":71,"name_kr":"이와테누마쿠나이"},"000733":{"code":"000733","name":"いわて沼宮内","isMatched":true,"company":103,"line":328,"lat":39.960615,"lon":141.21742,"length":117,"name_kr":"이와테누마쿠나이"},"000776":{"code":"000776","name":"厨川","isMatched":true,"company":13,"line":20,"lat":39.74408,"lon":141.12886,"length":219,"name_kr":"구리야가와"},"000743":{"code":"000743","name":"岩手川口","isMatched":true,"company":13,"line":20,"lat":39.919313,"lon":141.199373,"length":225,"name_kr":"이와테카와구치"},"000686":{"code":"000686","name":"一戸","isMatched":true,"company":13,"line":20,"lat":40.210374,"lon":141.297388,"length":259,"name_kr":"이치노헤 "},"000657":{"code":"000657","name":"金田一温泉","isMatched":true,"company":13,"line":20,"lat":40.323098,"lon":141.303832,"length":204,"name_kr":"긴타이치온센"},"000770":{"code":"000770","name":"滝沢","isMatched":true,"company":13,"line":20,"lat":39.799,"lon":141.149555,"length":228,"name_kr":"다키자와"},"000707":{"code":"000707","name":"小繋","isMatched":true,"company":13,"line":20,"lat":40.123105,"lon":141.26042,"length":218,"name_kr":"고쓰나기"},"000718":{"code":"000718","name":"奥中山高原","isMatched":true,"company":13,"line":20,"lat":40.066155,"lon":141.2285,"length":86,"name_kr":"오쿠나카야마코겐"},"000651":{"code":"000651","name":"目時","isMatched":true,"company":13,"line":20,"lat":40.35205,"lon":141.289575,"length":209,"name_kr":"메토키"},"000652":{"code":"000652","name":"目時","isMatched":true,"company":167,"line":580,"lat":40.35205,"lon":141.289575,"length":209,"name_kr":"메토키"},"000758":{"code":"000758","name":"好摩","isMatched":true,"company":13,"line":20,"lat":39.87416,"lon":141.173675,"length":249,"name_kr":"고마"},"000757":{"code":"000757","name":"好摩","isMatched":true,"company":103,"line":352,"lat":39.87416,"lon":141.173675,"length":249,"name_kr":"고마"},"000782":{"code":"000782","name":"青山","isMatched":true,"company":13,"line":20,"lat":39.724653,"lon":141.118297,"length":143,"name_kr":"아오야마"},"000771":{"code":"000771","name":"巣子","isMatched":true,"company":13,"line":20,"lat":39.783427,"lon":141.148647,"length":128,"name_kr":"스고"},"005239":{"code":"005239","name":"上総中野","isMatched":true,"company":3,"line":4,"lat":35.25004,"lon":140.199595,"length":81,"name_kr":"가즈사나카노"},"005238":{"code":"005238","name":"上総中野","isMatched":true,"company":78,"line":231,"lat":35.25004,"lon":140.199595,"length":81,"name_kr":"가즈사나카노"},"005145":{"code":"005145","name":"大多喜","isMatched":true,"company":3,"line":4,"lat":35.286535,"lon":140.24384,"length":77,"name_kr":"오타키"},"005207":{"code":"005207","name":"東総元","isMatched":true,"company":3,"line":4,"lat":35.259445,"lon":140.24763,"length":74,"name_kr":"히가시후사모토"},"005154":{"code":"005154","name":"上総中川","isMatched":true,"company":3,"line":4,"lat":35.282705,"lon":140.28056,"length":75,"name_kr":"가즈사나카가와"},"005160":{"code":"005160","name":"国吉","isMatched":true,"company":3,"line":4,"lat":35.280425,"lon":140.31399,"length":126,"name_kr":"구니요시"},"005236":{"code":"005236","name":"久我原","isMatched":true,"company":3,"line":4,"lat":35.25022,"lon":140.247665,"length":79,"name_kr":"구가하라"},"005198":{"code":"005198","name":"上総東","isMatched":true,"company":3,"line":4,"lat":35.26329,"lon":140.344905,"length":74,"name_kr":"가즈사아즈마 "},"005233":{"code":"005233","name":"西畑","isMatched":true,"company":3,"line":4,"lat":35.250527,"lon":140.215177,"length":75,"name_kr":"니시하타"},"005182":{"code":"005182","name":"小谷松","isMatched":true,"company":3,"line":4,"lat":35.268975,"lon":140.25104,"length":75,"name_kr":"고야마쓰"},"005257":{"code":"005257","name":"総元","isMatched":true,"company":3,"line":4,"lat":35.24057,"lon":140.24036,"length":76,"name_kr":"후사모토"},"005204":{"code":"005204","name":"西大原","isMatched":true,"company":3,"line":4,"lat":35.260515,"lon":140.377975,"length":75,"name_kr":"니시오하라"},"005169":{"code":"005169","name":"新田野","isMatched":true,"company":3,"line":4,"lat":35.27599,"lon":140.328525,"length":73,"name_kr":"닛타노 "},"005230":{"code":"005230","name":"大原","isMatched":true,"company":3,"line":4,"lat":35.250847,"lon":140.391033,"length":187,"name_kr":"오하라"},"005229":{"code":"005229","name":"大原","isMatched":true,"company":103,"line":314,"lat":35.250847,"lon":140.391033,"length":187,"name_kr":"오하라"},"002575":{"code":"002575","name":"西長田ゆりの里","isMatched":true,"company":5,"line":7,"lat":36.153585,"lon":136.206495,"length":76,"name_kr":"니시나가타유리노사토"},"002609":{"code":"002609","name":"鷲塚針原","isMatched":true,"company":5,"line":7,"lat":36.12024,"lon":136.20481,"length":76,"name_kr":"와시즈카하리바라"},"002668":{"code":"002668","name":"西別院","isMatched":true,"company":5,"line":7,"lat":36.075255,"lon":136.22299,"length":68,"name_kr":"니시베쓰인"},"002630":{"code":"002630","name":"中角","isMatched":true,"company":5,"line":7,"lat":36.10112,"lon":136.204445,"length":71,"name_kr":"나카쓰노"},"002638":{"code":"002638","name":"新田塚","isMatched":true,"company":5,"line":7,"lat":36.092575,"lon":136.20528,"length":79,"name_kr":"닛타즈카"},"002533":{"code":"002533","name":"番田","isMatched":true,"company":5,"line":7,"lat":36.21253,"lon":136.20252,"length":73,"name_kr":"반다"},"002677":{"code":"002677","name":"福井口","isMatched":true,"company":5,"line":7,"lat":36.071495,"lon":136.2334,"length":69,"name_kr":"후쿠이구치"},"002678":{"code":"002678","name":"福井口","isMatched":true,"company":5,"line":8,"lat":36.071495,"lon":136.2334,"length":69,"name_kr":"후쿠이구치"},"002526":{"code":"002526","name":"三国","isMatched":true,"company":5,"line":7,"lat":36.21692,"lon":136.14995,"length":73,"name_kr":"미쿠니"},"002599":{"code":"002599","name":"太郎丸エンゼルランド","isMatched":true,"company":5,"line":7,"lat":36.131335,"lon":136.20569,"length":75,"name_kr":"다로마루엔젤랜드"},"002671":{"code":"002671","name":"福大前西福井","isMatched":true,"company":5,"line":7,"lat":36.074405,"lon":136.21013,"length":85,"name_kr":"후쿠다이마에니시후쿠이"},"002556":{"code":"002556","name":"大関","isMatched":true,"company":5,"line":7,"lat":36.18663,"lon":136.20378,"length":74,"name_kr":"오제키"},"002530":{"code":"002530","name":"三国神社","isMatched":true,"company":5,"line":7,"lat":36.214885,"lon":136.158335,"length":72,"name_kr":"미쿠니진자"},"002524":{"code":"002524","name":"水居","isMatched":true,"company":5,"line":7,"lat":36.21921,"lon":136.172305,"length":68,"name_kr":"미즈이"},"002519":{"code":"002519","name":"あわら湯のまち","isMatched":true,"company":5,"line":7,"lat":36.22296,"lon":136.1938,"length":74,"name_kr":"아와라유노마치"},"002591":{"code":"002591","name":"西春江ハートピア","isMatched":true,"company":5,"line":7,"lat":36.1389,"lon":136.20622,"length":69,"name_kr":"니시하루에하트피아"},"002669":{"code":"002669","name":"田原町","isMatched":true,"company":5,"line":7,"lat":36.07499,"lon":136.21764,"length":74,"name_kr":"다와라마치"},"002670":{"code":"002670","name":"田原町","isMatched":true,"company":132,"line":432,"lat":36.074735,"lon":136.217595,"length":65,"name_kr":"다와라마치"},"002567":{"code":"002567","name":"下兵庫こうふく","isMatched":true,"company":5,"line":7,"lat":36.17012,"lon":136.202593,"length":60,"name_kr":"시모효고코후쿠"},"002522":{"code":"002522","name":"三国港","isMatched":true,"company":5,"line":7,"lat":36.220095,"lon":136.140355,"length":71,"name_kr":"미쿠니미나토"},"002542":{"code":"002542","name":"本荘","isMatched":true,"company":5,"line":7,"lat":36.204625,"lon":136.20316,"length":101,"name_kr":"혼조"},"002631":{"code":"002631","name":"志比堺","isMatched":true,"company":5,"line":8,"lat":36.09777,"lon":136.311005,"length":73,"name_kr":"시비사카이"},"002673":{"code":"002673","name":"越前竹原","isMatched":true,"company":5,"line":8,"lat":36.073933,"lon":136.41303,"length":66,"name_kr":"에치젠타케하라"},"002679":{"code":"002679","name":"保田","isMatched":true,"company":5,"line":8,"lat":36.06992,"lon":136.451653,"length":74,"name_kr":"호타"},"002659":{"code":"002659","name":"山王","isMatched":true,"company":5,"line":8,"lat":36.07912,"lon":136.392453,"length":70,"name_kr":"산노"},"002697":{"code":"002697","name":"勝山","isMatched":true,"company":5,"line":8,"lat":36.055923,"lon":136.4922,"length":66,"name_kr":"가쓰야마"},"002653":{"code":"002653","name":"越前野中","isMatched":true,"company":5,"line":8,"lat":36.08289,"lon":136.376877,"length":72,"name_kr":"에치젠노나카"},"002637":{"code":"002637","name":"松岡","isMatched":true,"company":5,"line":8,"lat":36.09403,"lon":136.301725,"length":82,"name_kr":"마쓰오카"},"002675":{"code":"002675","name":"発坂","isMatched":true,"company":5,"line":8,"lat":36.07259,"lon":136.466163,"length":73,"name_kr":"홋사카"},"002645":{"code":"002645","name":"光明寺","isMatched":true,"company":5,"line":8,"lat":36.08842,"lon":136.34455,"length":75,"name_kr":"고묘지"},"002634":{"code":"002634","name":"永平寺口","isMatched":true,"company":5,"line":8,"lat":36.095805,"lon":136.326745,"length":72,"name_kr":"에이헤이지구치"},"002664":{"code":"002664","name":"小舟渡","isMatched":true,"company":5,"line":8,"lat":36.075533,"lon":136.434053,"length":72,"name_kr":"고부나토"},"002648":{"code":"002648","name":"轟","isMatched":true,"company":5,"line":8,"lat":36.08684,"lon":136.3611,"length":62,"name_kr":"도도로키"},"002641":{"code":"002641","name":"下志比","isMatched":true,"company":5,"line":8,"lat":36.09063,"lon":136.336405,"length":74,"name_kr":"시모시히"},"002682":{"code":"002682","name":"比島","isMatched":true,"company":5,"line":8,"lat":36.065977,"lon":136.484113,"length":67,"name_kr":"히시마"},"002658":{"code":"002658","name":"越前新保","isMatched":true,"company":5,"line":8,"lat":36.08038,"lon":136.25095,"length":74,"name_kr":"에치젠신보"},"002667":{"code":"002667","name":"越前開発","isMatched":true,"company":5,"line":8,"lat":36.075305,"lon":136.24128,"length":68,"name_kr":"에치젠카이하쓰"},"002688":{"code":"002688","name":"福井","isMatched":true,"company":5,"line":8,"lat":36.0621,"lon":136.22406,"length":77,"name_kr":"후쿠이"},"002689":{"code":"002689","name":"福井","isMatched":true,"company":147,"line":459,"lat":36.06139,"lon":136.222882,"length":381,"name_kr":"후쿠이"},"002642":{"code":"002642","name":"越前島橋","isMatched":true,"company":5,"line":8,"lat":36.09012,"lon":136.277265,"length":78,"name_kr":"에치젠시마바시"},"002639":{"code":"002639","name":"観音町","isMatched":true,"company":5,"line":8,"lat":36.09183,"lon":136.28969,"length":68,"name_kr":"간논마치"},"002649":{"code":"002649","name":"東藤島","isMatched":true,"company":5,"line":8,"lat":36.08663,"lon":136.269855,"length":70,"name_kr":"히가시후지시마"},"002685":{"code":"002685","name":"新福井","isMatched":true,"company":5,"line":8,"lat":36.064835,"lon":136.22693,"length":66,"name_kr":"신후쿠이"},"002654":{"code":"002654","name":"追分口","isMatched":true,"company":5,"line":8,"lat":36.08249,"lon":136.261375,"length":74,"name_kr":"오이와케구치"},"009899":{"code":"009899","name":"東多良木","isMatched":true,"company":6,"line":9,"lat":32.272245,"lon":130.9508,"length":80,"name_kr":"히가시타라기"},"009917":{"code":"009917","name":"一武","isMatched":true,"company":6,"line":9,"lat":32.21456,"lon":130.83994,"length":66,"name_kr":"이치부"},"009913":{"code":"009913","name":"木上","isMatched":true,"company":6,"line":9,"lat":32.224275,"lon":130.85891,"length":74,"name_kr":"기노에"},"009903":{"code":"009903","name":"公立病院前","isMatched":true,"company":6,"line":9,"lat":32.256035,"lon":130.92189,"length":71,"name_kr":"고리쓰뵤인마에"},"009902":{"code":"009902","name":"多良木","isMatched":true,"company":6,"line":9,"lat":32.262755,"lon":130.93319,"length":71,"name_kr":"다라기"},"009909":{"code":"009909","name":"あさぎり","isMatched":true,"company":6,"line":9,"lat":32.23625,"lon":130.89376,"length":81,"name_kr":"아사기리"},"009897":{"code":"009897","name":"湯前","isMatched":true,"company":6,"line":9,"lat":32.281365,"lon":130.979865,"length":75,"name_kr":"유노마에"},"009898":{"code":"009898","name":"新鶴羽","isMatched":true,"company":6,"line":9,"lat":32.275445,"lon":130.96621,"length":76,"name_kr":"신쓰루바"},"009922":{"code":"009922","name":"肥後西村","isMatched":true,"company":6,"line":9,"lat":32.20227,"lon":130.808865,"length":74,"name_kr":"히고니시무라"},"009911":{"code":"009911","name":"おかどめ幸福","isMatched":true,"company":6,"line":9,"lat":32.23145,"lon":130.875105,"length":69,"name_kr":"오카도메코후쿠"},"009906":{"code":"009906","name":"東免田","isMatched":true,"company":6,"line":9,"lat":32.2502,"lon":130.91302,"length":85,"name_kr":"히가시멘다"},"009914":{"code":"009914","name":"相良藩願成寺","isMatched":true,"company":6,"line":9,"lat":32.218365,"lon":130.769635,"length":71,"name_kr":"사가라한간조지"},"009920":{"code":"009920","name":"川村","isMatched":true,"company":6,"line":9,"lat":32.207235,"lon":130.79535,"length":73,"name_kr":"가와무라"},"009916":{"code":"009916","name":"人吉温泉","isMatched":true,"company":6,"line":9,"lat":32.21614,"lon":130.753815,"length":219,"name_kr":"히토요시온센"},"002414":{"code":"002414","name":"平原","isMatched":true,"company":7,"line":10,"lat":36.308635,"lon":138.45391,"length":234,"name_kr":"히라하라"},"002132":{"code":"002132","name":"屋代高校前","isMatched":true,"company":7,"line":10,"lat":36.547955,"lon":138.13249,"length":119,"name_kr":"야시로코코마에"},"002353":{"code":"002353","name":"中軽井沢","isMatched":true,"company":7,"line":10,"lat":36.347562,"lon":138.593212,"length":291,"name_kr":"나카카루이자와"},"002395":{"code":"002395","name":"御代田","isMatched":true,"company":7,"line":10,"lat":36.31899,"lon":138.50632,"length":301,"name_kr":"미요타"},"002361":{"code":"002361","name":"軽井沢","isMatched":true,"company":7,"line":10,"lat":36.342863,"lon":138.63513,"length":320,"name_kr":"가루이자와"},"002362":{"code":"002362","name":"軽井沢","isMatched":true,"company":103,"line":310,"lat":36.342597,"lon":138.634918,"length":321,"name_kr":"가루이자와"},"002371":{"code":"002371","name":"信濃追分","isMatched":true,"company":7,"line":10,"lat":36.33545,"lon":138.558495,"length":271,"name_kr":"시나노오이와케"},"002343":{"code":"002343","name":"田中","isMatched":true,"company":7,"line":10,"lat":36.354415,"lon":138.32921,"length":256,"name_kr":"다나카"},"002276":{"code":"002276","name":"上田","isMatched":true,"company":7,"line":10,"lat":36.395753,"lon":138.25026,"length":296,"name_kr":"우에다"},"002275":{"code":"002275","name":"上田","isMatched":true,"company":26,"line":40,"lat":36.395753,"lon":138.25026,"length":296,"name_kr":"우에다"},"002273":{"code":"002273","name":"上田","isMatched":true,"company":103,"line":310,"lat":36.39614,"lon":138.25023,"length":290,"name_kr":"우에다"},"002243":{"code":"002243","name":"西上田","isMatched":true,"company":7,"line":10,"lat":36.416875,"lon":138.209055,"length":201,"name_kr":"니시우에다"},"002185":{"code":"002185","name":"戸倉","isMatched":true,"company":7,"line":10,"lat":36.492868,"lon":138.153082,"length":261,"name_kr":"도구라 "},"002211":{"code":"002211","name":"坂城","isMatched":true,"company":7,"line":10,"lat":36.46198,"lon":138.18145,"length":272,"name_kr":"사카키"},"002303":{"code":"002303","name":"信濃国分寺","isMatched":true,"company":7,"line":10,"lat":36.37832,"lon":138.273835,"length":191,"name_kr":"시나노코쿠분지"},"002322":{"code":"002322","name":"大屋","isMatched":true,"company":7,"line":10,"lat":36.36959,"lon":138.29713,"length":308,"name_kr":"오야"},"002363":{"code":"002363","name":"滋野","isMatched":true,"company":7,"line":10,"lat":36.34232,"lon":138.363907,"length":208,"name_kr":"시게노"},"002152":{"code":"002152","name":"屋代","isMatched":true,"company":7,"line":10,"lat":36.532422,"lon":138.1282,"length":260,"name_kr":"야시로 "},"002223":{"code":"002223","name":"テクノさかき","isMatched":true,"company":7,"line":10,"lat":36.44058,"lon":138.1882,"length":140,"name_kr":"데쿠노사카키"},"002384":{"code":"002384","name":"小諸","isMatched":true,"company":7,"line":10,"lat":36.325642,"lon":138.422902,"length":239,"name_kr":"고모로"},"002385":{"code":"002385","name":"小諸","isMatched":true,"company":103,"line":319,"lat":36.325677,"lon":138.42274,"length":239,"name_kr":"고모로"},"002098":{"code":"002098","name":"篠ノ井","isMatched":true,"company":7,"line":10,"lat":36.576957,"lon":138.138073,"length":300,"name_kr":"시노노이"},"002096":{"code":"002096","name":"篠ノ井","isMatched":true,"company":103,"line":348,"lat":36.576957,"lon":138.138073,"length":300,"name_kr":"시노노이"},"002097":{"code":"002097","name":"篠ノ井","isMatched":true,"company":103,"line":305,"lat":36.576957,"lon":138.138073,"length":300,"name_kr":"시노노이"},"007972":{"code":"007972","name":"みどり中街","isMatched":true,"company":15,"line":22,"lat":34.42765,"lon":132.595015,"length":50,"name_kr":"미도리나카마치"},"007968":{"code":"007968","name":"みどり中央","isMatched":true,"company":15,"line":22,"lat":34.43024,"lon":132.589605,"length":50,"name_kr":"미도리추오"},"007978":{"code":"007978","name":"みどり口","isMatched":true,"company":15,"line":22,"lat":34.422325,"lon":132.596315,"length":50,"name_kr":"미도리구치"},"001650":{"code":"001650","name":"和倉温泉","isMatched":true,"company":9,"line":16,"lat":37.0747,"lon":136.925833,"length":298,"name_kr":"와쿠라온센"},"001670":{"code":"001670","name":"七尾","isMatched":true,"company":9,"line":16,"lat":37.04178,"lon":136.96422,"length":284,"name_kr":"나나오"},"001648":{"code":"001648","name":"笠師保","isMatched":true,"company":9,"line":16,"lat":37.079505,"lon":136.85775,"length":122,"name_kr":"가사시호"},"001656":{"code":"001656","name":"田鶴浜","isMatched":true,"company":9,"line":16,"lat":37.06574,"lon":136.89147,"length":134,"name_kr":"다쓰루하마"},"001614":{"code":"001614","name":"西岸","isMatched":true,"company":9,"line":16,"lat":37.147665,"lon":136.87416,"length":90,"name_kr":"니시기시"},"001577":{"code":"001577","name":"穴水","isMatched":true,"company":9,"line":16,"lat":37.228035,"lon":136.904585,"length":205,"name_kr":"아나미즈"},"001633":{"code":"001633","name":"能登中島","isMatched":true,"company":9,"line":16,"lat":37.109255,"lon":136.853615,"length":85,"name_kr":"노토나카지마"},"001596":{"code":"001596","name":"能登鹿島","isMatched":true,"company":9,"line":16,"lat":37.17979,"lon":136.897855,"length":127,"name_kr":"노토카시마"},"002256":{"code":"002256","name":"桐生","isMatched":true,"company":12,"line":19,"lat":36.411097,"lon":139.333253,"length":134,"name_kr":"기류"},"002255":{"code":"002255","name":"桐生","isMatched":true,"company":103,"line":296,"lat":36.411097,"lon":139.333253,"length":134,"name_kr":"기류"},"002164":{"code":"002164","name":"花輪","isMatched":true,"company":12,"line":19,"lat":36.52083,"lon":139.3077,"length":81,"name_kr":"하나와"},"002180":{"code":"002180","name":"水沼","isMatched":true,"company":12,"line":19,"lat":36.49985,"lon":139.277595,"length":66,"name_kr":"미즈누마"},"002145":{"code":"002145","name":"神戸","isMatched":true,"company":12,"line":19,"lat":36.537505,"lon":139.356565,"length":85,"name_kr":"간베"},"002259":{"code":"002259","name":"相老","isMatched":true,"company":12,"line":19,"lat":36.410307,"lon":139.304407,"length":123,"name_kr":"아이오이"},"002258":{"code":"002258","name":"相老","isMatched":true,"company":104,"line":371,"lat":36.410635,"lon":139.303915,"length":98,"name_kr":"아이오이"},"002039":{"code":"002039","name":"通洞","isMatched":true,"company":12,"line":19,"lat":36.636865,"lon":139.43965,"length":98,"name_kr":"쓰도"},"002203":{"code":"002203","name":"上神梅","isMatched":true,"company":12,"line":19,"lat":36.47007,"lon":139.257725,"length":71,"name_kr":"가미칸바이"},"002018":{"code":"002018","name":"間藤","isMatched":true,"company":12,"line":19,"lat":36.65354,"lon":139.45009,"length":74,"name_kr":"마토"},"002036":{"code":"002036","name":"足尾","isMatched":true,"company":12,"line":19,"lat":36.641915,"lon":139.447775,"length":98,"name_kr":"아시오"},"002238":{"code":"002238","name":"運動公園","isMatched":true,"company":12,"line":19,"lat":36.42041,"lon":139.30086,"length":67,"name_kr":"운도코엔"},"002147":{"code":"002147","name":"小中","isMatched":true,"company":12,"line":19,"lat":36.535655,"lon":139.337795,"length":70,"name_kr":"고나카"},"002195":{"code":"002195","name":"本宿","isMatched":true,"company":12,"line":19,"lat":36.481425,"lon":139.259345,"length":73,"name_kr":"모토주쿠"},"002227":{"code":"002227","name":"大間々","isMatched":true,"company":12,"line":19,"lat":36.434615,"lon":139.27755,"length":72,"name_kr":"오마마"},"002089":{"code":"002089","name":"沢入","isMatched":true,"company":12,"line":19,"lat":36.58063,"lon":139.396285,"length":75,"name_kr":"소리"},"002261":{"code":"002261","name":"下新田","isMatched":true,"company":12,"line":19,"lat":36.407777,"lon":139.315087,"length":69,"name_kr":"시모신덴"},"002058":{"code":"002058","name":"原向","isMatched":true,"company":12,"line":19,"lat":36.61731,"lon":139.42053,"length":100,"name_kr":"하라무코"},"002161":{"code":"002161","name":"中野","isMatched":true,"company":12,"line":19,"lat":36.524275,"lon":139.317165,"length":77,"name_kr":"나카노"},"009022":{"code":"009022","name":"海部","isMatched":true,"company":165,"line":578,"lat":33.59342,"lon":134.351985,"length":78,"name_kr":"가이후"},"009094":{"code":"009094","name":"宍喰","isMatched":true,"company":165,"line":578,"lat":33.56693,"lon":134.30072,"length":85,"name_kr":"시시쿠이"},"009190":{"code":"009190","name":"甲浦","isMatched":true,"company":165,"line":578,"lat":33.546884,"lon":134.287841,"length":17,"name_kr":"간노우라"},"001372":{"code":"001372","name":"福島","isMatched":true,"company":166,"line":579,"lat":37.754315,"lon":140.45993,"length":203,"name_kr":"후쿠시마 역 (한신 전기철도)"},"001373":{"code":"001373","name":"福島","isMatched":true,"company":103,"line":318,"lat":37.75431,"lon":140.459625,"length":588,"name_kr":"후쿠시마 역 (한신 전기철도)"},"001374":{"code":"001374","name":"福島","isMatched":true,"company":103,"line":328,"lat":37.75371,"lon":140.458603,"length":387,"name_kr":"후쿠시마 역 (한신 전기철도)"},"001370":{"code":"001370","name":"福島","isMatched":true,"company":103,"line":329,"lat":37.754315,"lon":140.45993,"length":404,"name_kr":"후쿠시마 역 (한신 전기철도)"},"001371":{"code":"001371","name":"福島","isMatched":true,"company":134,"line":436,"lat":37.75432,"lon":140.460035,"length":202,"name_kr":"후쿠시마 역 (한신 전기철도)"},"001274":{"code":"001274","name":"角田","isMatched":true,"company":166,"line":579,"lat":37.97929,"lon":140.77241,"length":83,"name_kr":"가쿠다"},"001278":{"code":"001278","name":"南角田","isMatched":true,"company":166,"line":579,"lat":37.964895,"lon":140.769615,"length":75,"name_kr":"미나미카쿠다"},"001335":{"code":"001335","name":"大泉","isMatched":true,"company":166,"line":579,"lat":37.81989,"lon":140.56684,"length":80,"name_kr":"오이즈미"},"001339":{"code":"001339","name":"保原","isMatched":true,"company":166,"line":579,"lat":37.814565,"lon":140.556595,"length":87,"name_kr":"호바라"},"001355":{"code":"001355","name":"卸町","isMatched":true,"company":166,"line":579,"lat":37.795455,"lon":140.47948,"length":70,"name_kr":"오로시마치"},"001344":{"code":"001344","name":"高子","isMatched":true,"company":166,"line":579,"lat":37.808387,"lon":140.527183,"length":118,"name_kr":"다카코"},"001348":{"code":"001348","name":"瀬上","isMatched":true,"company":166,"line":579,"lat":37.802375,"lon":140.498565,"length":81,"name_kr":"세노우에"},"001310":{"code":"001310","name":"兜","isMatched":true,"company":166,"line":579,"lat":37.895392,"lon":140.64652,"length":89,"name_kr":"가부토"},"001266":{"code":"001266","name":"岡","isMatched":true,"company":166,"line":579,"lat":38.019023,"lon":140.780343,"length":105,"name_kr":"오카"},"001343":{"code":"001343","name":"上保原","isMatched":true,"company":166,"line":579,"lat":37.80961,"lon":140.54282,"length":96,"name_kr":"가미호바라"},"001332":{"code":"001332","name":"二井田","isMatched":true,"company":166,"line":579,"lat":37.827815,"lon":140.580375,"length":86,"name_kr":"니다"},"001284":{"code":"001284","name":"北丸森","isMatched":true,"company":166,"line":579,"lat":37.943105,"lon":140.77182,"length":75,"name_kr":"기타마루모리"},"001288":{"code":"001288","name":"丸森","isMatched":true,"company":166,"line":579,"lat":37.93072,"lon":140.76172,"length":98,"name_kr":"마루모리"},"001237":{"code":"001237","name":"槻木","isMatched":true,"company":166,"line":579,"lat":38.07914,"lon":140.810183,"length":220,"name_kr":"쓰키노키"},"001236":{"code":"001236","name":"槻木","isMatched":true,"company":103,"line":329,"lat":38.07914,"lon":140.810183,"length":220,"name_kr":"쓰키노키"},"001271":{"code":"001271","name":"横倉","isMatched":true,"company":166,"line":579,"lat":37.996985,"lon":140.77605,"length":71,"name_kr":"요코쿠라"},"001317":{"code":"001317","name":"富野","isMatched":true,"company":166,"line":579,"lat":37.87474,"lon":140.627465,"length":87,"name_kr":"도미노"},"001253":{"code":"001253","name":"東船岡","isMatched":true,"company":166,"line":579,"lat":38.05013,"lon":140.789815,"length":75,"name_kr":"히가시후나오카"},"001325":{"code":"001325","name":"梁川","isMatched":true,"company":166,"line":579,"lat":37.846,"lon":140.60347,"length":90,"name_kr":"야나가와"},"001353":{"code":"001353","name":"福島学院前","isMatched":true,"company":166,"line":579,"lat":37.798753,"lon":140.488588,"length":76,"name_kr":"후쿠시마가쿠인마에"},"001345":{"code":"001345","name":"向瀬上","isMatched":true,"company":166,"line":579,"lat":37.80658,"lon":140.51033,"length":88,"name_kr":"무카이세노우에"},"001327":{"code":"001327","name":"新田","isMatched":true,"company":166,"line":579,"lat":37.83776,"lon":140.593025,"length":87,"name_kr":"신덴"},"001322":{"code":"001322","name":"やながわ希望の森公園前","isMatched":true,"company":166,"line":579,"lat":37.85787,"lon":140.61565,"length":80,"name_kr":"야나가와키보노모리코엔마에"},"001295":{"code":"001295","name":"あぶくま","isMatched":true,"company":166,"line":579,"lat":37.913405,"lon":140.68576,"length":96,"name_kr":"아부쿠마"},"005730":{"code":"005730","name":"新豊田","isMatched":true,"company":92,"line":259,"lat":35.087879,"lon":137.153541,"length":186,"name_kr":"신토요타"},"005569":{"code":"005569","name":"保見","isMatched":true,"company":92,"line":259,"lat":35.136715,"lon":137.134363,"length":91,"name_kr":"호미"},"005358":{"code":"005358","name":"山口","isMatched":true,"company":92,"line":259,"lat":35.197895,"lon":137.101702,"length":115,"name_kr":"야마구치"},"006090":{"code":"006090","name":"大門","isMatched":true,"company":92,"line":259,"lat":34.98258,"lon":137.154735,"length":75,"name_kr":"다이몬 역 (히로시마 현)"},"005195":{"code":"005195","name":"高蔵寺","isMatched":true,"company":92,"line":259,"lat":35.264255,"lon":137.04326,"length":282,"name_kr":"고조지"},"005194":{"code":"005194","name":"高蔵寺","isMatched":true,"company":106,"line":376,"lat":35.2644,"lon":137.043255,"length":286,"name_kr":"고조지"},"005886":{"code":"005886","name":"永覚","isMatched":true,"company":92,"line":259,"lat":35.02747,"lon":137.13898,"length":68,"name_kr":"에카쿠"},"005761":{"code":"005761","name":"新上挙母","isMatched":true,"company":92,"line":259,"lat":35.07179,"lon":137.15118,"length":71,"name_kr":"신우와고로모"},"005432":{"code":"005432","name":"八草","isMatched":true,"company":92,"line":259,"lat":35.17492,"lon":137.10715,"length":97,"name_kr":"야쿠사"},"005427":{"code":"005427","name":"八草","isMatched":true,"company":93,"line":260,"lat":35.176515,"lon":137.10635,"length":38,"name_kr":"야쿠사"},"005857":{"code":"005857","name":"末野原","isMatched":true,"company":92,"line":259,"lat":35.03954,"lon":137.1469,"length":73,"name_kr":"스에노하라"},"005288":{"code":"005288","name":"瀬戸市","isMatched":true,"company":92,"line":259,"lat":35.225913,"lon":137.078443,"length":144,"name_kr":"세토시"},"005946":{"code":"005946","name":"三河上郷","isMatched":true,"company":92,"line":259,"lat":35.01241,"lon":137.13276,"length":69,"name_kr":"미카와카미고"},"006025":{"code":"006025","name":"北野桝塚","isMatched":true,"company":92,"line":259,"lat":34.996285,"lon":137.13949,"length":85,"name_kr":"기타노마스즈카"},"005235":{"code":"005235","name":"中水野","isMatched":true,"company":92,"line":259,"lat":35.250455,"lon":137.071925,"length":199,"name_kr":"나카미즈노"},"005817":{"code":"005817","name":"三河豊田","isMatched":true,"company":92,"line":259,"lat":35.055437,"lon":137.15093,"length":78,"name_kr":"미카와토요타"},"005515":{"code":"005515","name":"篠原","isMatched":true,"company":92,"line":259,"lat":35.15473,"lon":137.12077,"length":75,"name_kr":"사사바라"},"005329":{"code":"005329","name":"瀬戸口","isMatched":true,"company":92,"line":259,"lat":35.206565,"lon":137.08213,"length":200,"name_kr":"세토구치"},"005682":{"code":"005682","name":"愛環梅坪","isMatched":true,"company":92,"line":259,"lat":35.105155,"lon":137.160915,"length":99,"name_kr":"아이칸우메쓰보"},"005621":{"code":"005621","name":"四郷","isMatched":true,"company":92,"line":259,"lat":35.121927,"lon":137.162693,"length":87,"name_kr":"시고"},"005577":{"code":"005577","name":"貝津","isMatched":true,"company":92,"line":259,"lat":35.13312,"lon":137.148055,"length":83,"name_kr":"가이즈"},"006127":{"code":"006127","name":"北岡崎","isMatched":true,"company":92,"line":259,"lat":34.972255,"lon":137.1577,"length":85,"name_kr":"기타오카자키"},"006252":{"code":"006252","name":"岡崎","isMatched":true,"company":92,"line":259,"lat":34.925783,"lon":137.157233,"length":322,"name_kr":"오카자키"},"006251":{"code":"006251","name":"岡崎","isMatched":true,"company":106,"line":382,"lat":34.925783,"lon":137.157233,"length":322,"name_kr":"오카자키"},"006171":{"code":"006171","name":"中岡崎","isMatched":true,"company":92,"line":259,"lat":34.95634,"lon":137.15278,"length":171,"name_kr":"나카오카자키"},"006208":{"code":"006208","name":"六名","isMatched":true,"company":92,"line":259,"lat":34.941285,"lon":137.151885,"length":83,"name_kr":"무쓰나"},"005443":{"code":"005443","name":"杁ヶ池公園","isMatched":true,"company":93,"line":260,"lat":35.171745,"lon":137.0379,"length":66,"name_kr":"이리가이케코엔"},"005417":{"code":"005417","name":"陶磁資料館南","isMatched":true,"company":93,"line":260,"lat":35.17924,"lon":137.09705,"length":55,"name_kr":"도지시료칸미나미"},"005433":{"code":"005433","name":"公園西","isMatched":true,"company":93,"line":260,"lat":35.1743,"lon":137.076855,"length":42,"name_kr":"고엔니시"},"005422":{"code":"005422","name":"愛・地球博記念公園","isMatched":true,"company":93,"line":260,"lat":35.177665,"lon":137.087535,"length":46,"name_kr":"아이치큐하쿠키넨코엔"},"005442":{"code":"005442","name":"芸大通","isMatched":true,"company":93,"line":260,"lat":35.17188,"lon":137.06122,"length":64,"name_kr":"게이다이도리"},"005445":{"code":"005445","name":"長久手古戦場","isMatched":true,"company":93,"line":260,"lat":35.17147,"lon":137.049505,"length":86,"name_kr":"나가쿠테코센조"},"005424":{"code":"005424","name":"はなみずき通","isMatched":true,"company":93,"line":260,"lat":35.17752,"lon":137.03547,"length":71,"name_kr":"하나미즈키도리"},"005412":{"code":"005412","name":"藤が丘","isMatched":true,"company":93,"line":260,"lat":35.1822,"lon":137.022265,"length":121,"name_kr":"후지가오카"},"005410":{"code":"005410","name":"藤が丘","isMatched":true,"company":60,"line":157,"lat":35.182555,"lon":137.021445,"length":73,"name_kr":"후지가오카"},"005641":{"code":"005641","name":"多宝塔","isMatched":true,"company":169,"line":582,"lat":35.11644,"lon":135.77281,"length":40,"name_kr":"다호토"},"005650":{"code":"005650","name":"山門","isMatched":true,"company":169,"line":582,"lat":35.11455,"lon":135.772875,"length":40,"name_kr":"산몬"},"006706":{"code":"006706","name":"河芸","isMatched":true,"company":39,"line":109,"lat":34.780985,"lon":136.530995,"length":91,"name_kr":"가와게"},"006626":{"code":"006626","name":"伊勢上野","isMatched":true,"company":39,"line":109,"lat":34.800335,"lon":136.54248,"length":71,"name_kr":"이세우에노"},"006463":{"code":"006463","name":"鈴鹿サーキット稲生","isMatched":true,"company":39,"line":109,"lat":34.8411,"lon":136.555215,"length":73,"name_kr":"스즈카서킷이노"},"006579":{"code":"006579","name":"中瀬古","isMatched":true,"company":39,"line":109,"lat":34.812145,"lon":136.543045,"length":97,"name_kr":"나카세코"},"006367":{"code":"006367","name":"鈴鹿","isMatched":true,"company":39,"line":109,"lat":34.87847,"lon":136.588795,"length":224,"name_kr":"스즈카"},"006425":{"code":"006425","name":"玉垣","isMatched":true,"company":39,"line":109,"lat":34.85514,"lon":136.57003,"length":130,"name_kr":"다마가키"},"006514":{"code":"006514","name":"徳田","isMatched":true,"company":39,"line":109,"lat":34.826145,"lon":136.543985,"length":84,"name_kr":"도쿠다"},"006285":{"code":"006285","name":"河原田","isMatched":true,"company":39,"line":109,"lat":34.911235,"lon":136.599275,"length":111,"name_kr":"가와라다"},"006286":{"code":"006286","name":"河原田","isMatched":true,"company":106,"line":386,"lat":34.911235,"lon":136.599275,"length":307,"name_kr":"가와라다"},"006802":{"code":"006802","name":"東一身田","isMatched":true,"company":39,"line":109,"lat":34.758735,"lon":136.5121,"length":100,"name_kr":"히가시잇신덴"},"006906":{"code":"006906","name":"津","isMatched":true,"company":39,"line":109,"lat":34.734373,"lon":136.510723,"length":223,"name_kr":"쓰"},"006904":{"code":"006904","name":"津","isMatched":true,"company":152,"line":530,"lat":34.734415,"lon":136.51023,"length":180,"name_kr":"쓰"},"006905":{"code":"006905","name":"津","isMatched":true,"company":106,"line":384,"lat":34.734373,"lon":136.510723,"length":223,"name_kr":"쓰"},"006965":{"code":"006965","name":"稲梓","isMatched":true,"company":40,"line":110,"lat":34.72206,"lon":138.9494,"length":189,"name_kr":"이나즈사"},"006557":{"code":"006557","name":"伊豆熱川","isMatched":true,"company":40,"line":110,"lat":34.817213,"lon":139.069453,"length":175,"name_kr":"이즈아타가와"},"007079":{"code":"007079","name":"蓮台寺","isMatched":true,"company":40,"line":110,"lat":34.699467,"lon":138.94129,"length":221,"name_kr":"렌다이지"},"006621":{"code":"006621","name":"片瀬白田","isMatched":true,"company":40,"line":110,"lat":34.80185,"lon":139.06122,"length":146,"name_kr":"가타세시라타"},"006846":{"code":"006846","name":"河津","isMatched":true,"company":40,"line":110,"lat":34.747437,"lon":138.995913,"length":204,"name_kr":"가와즈"},"006506":{"code":"006506","name":"伊豆北川","isMatched":true,"company":40,"line":110,"lat":34.827275,"lon":139.075725,"length":73,"name_kr":"이즈홋카와"},"007218":{"code":"007218","name":"伊豆急下田","isMatched":true,"company":40,"line":110,"lat":34.67969,"lon":138.944285,"length":145,"name_kr":"이즈큐시모다"},"006168":{"code":"006168","name":"南伊東","isMatched":true,"company":40,"line":110,"lat":34.957755,"lon":139.088035,"length":140,"name_kr":"미나미이토"},"006819":{"code":"006819","name":"今井浜海岸","isMatched":true,"company":40,"line":110,"lat":34.753715,"lon":139.00467,"length":74,"name_kr":"이마이하마카이간"},"006290":{"code":"006290","name":"富戸","isMatched":true,"company":40,"line":110,"lat":34.91004,"lon":139.131685,"length":180,"name_kr":"후토"},"006336":{"code":"006336","name":"城ヶ崎海岸","isMatched":true,"company":40,"line":110,"lat":34.890185,"lon":139.121927,"length":156,"name_kr":"조가사키카이간"},"006370":{"code":"006370","name":"伊豆高原","isMatched":true,"company":40,"line":110,"lat":34.87746,"lon":139.108175,"length":217,"name_kr":"이즈코겐"},"006730":{"code":"006730","name":"伊豆稲取","isMatched":true,"company":40,"line":110,"lat":34.774555,"lon":139.03737,"length":179,"name_kr":"이즈이나토리"},"006456":{"code":"006456","name":"伊豆大川","isMatched":true,"company":40,"line":110,"lat":34.84335,"lon":139.07407,"length":87,"name_kr":"이즈오카와"},"006118":{"code":"006118","name":"伊東","isMatched":true,"company":40,"line":110,"lat":34.974835,"lon":139.092105,"length":191,"name_kr":"이토"},"006117":{"code":"006117","name":"伊東","isMatched":true,"company":103,"line":304,"lat":34.974835,"lon":139.092105,"length":191,"name_kr":"이토"},"006191":{"code":"006191","name":"川奈","isMatched":true,"company":40,"line":110,"lat":34.950885,"lon":139.124835,"length":178,"name_kr":"가와나"},"005594":{"code":"005594","name":"十国登り口","isMatched":true,"company":54,"line":142,"lat":35.12768,"lon":139.03743,"length":36,"name_kr":"짓코쿠노보리구치"},"005595":{"code":"005595","name":"十国峠","isMatched":true,"company":54,"line":142,"lat":35.12768,"lon":139.04083,"length":49,"name_kr":"짓코쿠토게"},"006101":{"code":"006101","name":"修善寺","isMatched":true,"company":41,"line":112,"lat":34.97927,"lon":138.95097,"length":104,"name_kr":"슈젠지"},"005603":{"code":"005603","name":"三島","isMatched":true,"company":41,"line":112,"lat":35.125855,"lon":138.910635,"length":139,"name_kr":"미시마"},"005600":{"code":"005600","name":"三島","isMatched":true,"company":106,"line":381,"lat":35.12671,"lon":138.90969,"length":347,"name_kr":"미시마"},"005601":{"code":"005601","name":"三島","isMatched":true,"company":106,"line":382,"lat":35.126153,"lon":138.910603,"length":362,"name_kr":"미시마"},"006036":{"code":"006036","name":"大仁","isMatched":true,"company":41,"line":112,"lat":34.994365,"lon":138.93746,"length":99,"name_kr":"오히토"},"005823":{"code":"005823","name":"韮山","isMatched":true,"company":41,"line":112,"lat":35.053285,"lon":138.94552,"length":203,"name_kr":"니라야마"},"006062":{"code":"006062","name":"牧之郷","isMatched":true,"company":41,"line":112,"lat":34.988855,"lon":138.95442,"length":81,"name_kr":"마키노코"},"005856":{"code":"005856","name":"伊豆長岡","isMatched":true,"company":41,"line":112,"lat":35.039805,"lon":138.94751,"length":151,"name_kr":"이즈나가오카"},"005663":{"code":"005663","name":"三島二日町","isMatched":true,"company":41,"line":112,"lat":35.11103,"lon":138.925935,"length":129,"name_kr":"미시마후쓰카마치"},"005782":{"code":"005782","name":"原木","isMatched":true,"company":41,"line":112,"lat":35.06549,"lon":138.943705,"length":166,"name_kr":"바라키"},"005718":{"code":"005718","name":"大場","isMatched":true,"company":41,"line":112,"lat":35.0922,"lon":138.93938,"length":200,"name_kr":"다이바"},"005642":{"code":"005642","name":"三島田町","isMatched":true,"company":41,"line":112,"lat":35.116202,"lon":138.918563,"length":172,"name_kr":"미시마타마치"},"005936":{"code":"005936","name":"田京","isMatched":true,"company":41,"line":112,"lat":35.014565,"lon":138.945775,"length":163,"name_kr":"다쿄"},"005744":{"code":"005744","name":"伊豆仁田","isMatched":true,"company":41,"line":112,"lat":35.078755,"lon":138.941565,"length":145,"name_kr":"이즈닛타"},"005631":{"code":"005631","name":"三島広小路","isMatched":true,"company":41,"line":112,"lat":35.119345,"lon":138.911215,"length":91,"name_kr":"미시마히로코지"},"005162":{"code":"005162","name":"穴部","isMatched":true,"company":41,"line":111,"lat":35.27986,"lon":139.14878,"length":71,"name_kr":"아나베"},"005064":{"code":"005064","name":"和田河原","isMatched":true,"company":41,"line":111,"lat":35.315947,"lon":139.11822,"length":78,"name_kr":"와다가하라"},"005214":{"code":"005214","name":"小田原","isMatched":true,"company":41,"line":111,"lat":35.256405,"lon":139.156505,"length":71,"name_kr":"오다와라"},"005215":{"code":"005215","name":"小田原","isMatched":true,"company":79,"line":233,"lat":35.256355,"lon":139.15543,"length":185,"name_kr":"오다와라"},"005217":{"code":"005217","name":"小田原","isMatched":true,"company":106,"line":381,"lat":35.25621,"lon":139.154765,"length":329,"name_kr":"오다와라"},"005218":{"code":"005218","name":"小田原","isMatched":true,"company":103,"line":330,"lat":35.256105,"lon":139.155767,"length":318,"name_kr":"오다와라"},"005216":{"code":"005216","name":"小田原","isMatched":true,"company":140,"line":443,"lat":35.256355,"lon":139.15543,"length":185,"name_kr":"오다와라"},"005117":{"code":"005117","name":"岩原","isMatched":true,"company":41,"line":111,"lat":35.29883,"lon":139.12881,"length":70,"name_kr":"이와하라"},"005057":{"code":"005057","name":"大雄山","isMatched":true,"company":41,"line":111,"lat":35.319043,"lon":139.103703,"length":81,"name_kr":"다이유잔"},"005183":{"code":"005183","name":"井細田","isMatched":true,"company":41,"line":111,"lat":35.26897,"lon":139.157395,"length":71,"name_kr":"이사이다"},"005208":{"code":"005208","name":"緑町","isMatched":true,"company":41,"line":111,"lat":35.25927,"lon":139.15861,"length":68,"name_kr":"미도리초"},"005135":{"code":"005135","name":"相模沼田","isMatched":true,"company":41,"line":111,"lat":35.292345,"lon":139.133905,"length":104,"name_kr":"사가미누마타"},"005172":{"code":"005172","name":"五百羅漢","isMatched":true,"company":41,"line":111,"lat":35.275165,"lon":139.15556,"length":91,"name_kr":"고햐쿠라칸"},"005112":{"code":"005112","name":"塚原","isMatched":true,"company":41,"line":111,"lat":35.301345,"lon":139.12672,"length":61,"name_kr":"쓰카하라"},"005140":{"code":"005140","name":"飯田岡","isMatched":true,"company":41,"line":111,"lat":35.287905,"lon":139.13932,"length":75,"name_kr":"이다오카"},"005060":{"code":"005060","name":"富士フイルム前","isMatched":true,"company":41,"line":111,"lat":35.317703,"lon":139.10951,"length":75,"name_kr":"후지 필름 마에"},"008784":{"code":"008784","name":"いよ立花","isMatched":true,"company":38,"line":104,"lat":33.827825,"lon":132.772955,"length":78,"name_kr":"이요타치바나"},"008801":{"code":"008801","name":"久米","isMatched":true,"company":38,"line":104,"lat":33.81623,"lon":132.804005,"length":75,"name_kr":"구메"},"008791":{"code":"008791","name":"福音寺","isMatched":true,"company":38,"line":104,"lat":33.822535,"lon":132.7889,"length":77,"name_kr":"후쿠온지"},"008812":{"code":"008812","name":"横河原","isMatched":true,"company":38,"line":104,"lat":33.80342,"lon":132.88422,"length":75,"name_kr":"요코가와라"},"008821":{"code":"008821","name":"牛渕","isMatched":true,"company":38,"line":104,"lat":33.795205,"lon":132.856175,"length":82,"name_kr":"우시부치"},"008816":{"code":"008816","name":"愛大医学部南口","isMatched":true,"company":38,"line":104,"lat":33.798095,"lon":132.87895,"length":74,"name_kr":"아이다이이가쿠부미나미구치"},"008818":{"code":"008818","name":"牛渕団地前","isMatched":true,"company":38,"line":104,"lat":33.79771,"lon":132.846255,"length":73,"name_kr":"우시부치단치마에"},"008805":{"code":"008805","name":"平井","isMatched":true,"company":38,"line":104,"lat":33.80871,"lon":132.82868,"length":80,"name_kr":"히라이"},"008824":{"code":"008824","name":"田窪","isMatched":true,"company":38,"line":104,"lat":33.79275,"lon":132.865735,"length":83,"name_kr":"다노쿠보"},"008802":{"code":"008802","name":"鷹ノ子","isMatched":true,"company":38,"line":104,"lat":33.812525,"lon":132.815345,"length":75,"name_kr":"다카노코"},"008773":{"code":"008773","name":"松山市","isMatched":true,"company":38,"line":104,"lat":33.83563,"lon":132.76185,"length":79,"name_kr":"마쓰야마시"},"008774":{"code":"008774","name":"松山市","isMatched":true,"company":38,"line":107,"lat":33.83563,"lon":132.76185,"length":79,"name_kr":"마쓰야마시"},"008775":{"code":"008775","name":"松山市","isMatched":true,"company":38,"line":108,"lat":33.83563,"lon":132.76185,"length":79,"name_kr":"마쓰야마시"},"008780":{"code":"008780","name":"石手川公園","isMatched":true,"company":38,"line":104,"lat":33.831315,"lon":132.76933,"length":87,"name_kr":"이시테가와코엔"},"008795":{"code":"008795","name":"北久米","isMatched":true,"company":38,"line":104,"lat":33.81927,"lon":132.798685,"length":83,"name_kr":"기타쿠메"},"008823":{"code":"008823","name":"見奈良","isMatched":true,"company":38,"line":104,"lat":33.793047,"lon":132.873677,"length":81,"name_kr":"미나라"},"008813":{"code":"008813","name":"梅本","isMatched":true,"company":38,"line":104,"lat":33.80122,"lon":132.83903,"length":73,"name_kr":"우메노모토"},"008768":{"code":"008768","name":"南堀端","isMatched":true,"company":38,"line":105,"lat":33.83944,"lon":132.761255,"length":64,"name_kr":"미나미호리바타"},"008769":{"code":"008769","name":"南堀端","isMatched":true,"company":38,"line":101,"lat":33.83944,"lon":132.761255,"length":64,"name_kr":"미나미호리바타"},"008772":{"code":"008772","name":"松山市駅","isMatched":true,"company":38,"line":105,"lat":33.83611,"lon":132.76286,"length":48,"name_kr":"마쓰야마시에키"},"008800":{"code":"008800","name":"余戸","isMatched":true,"company":38,"line":107,"lat":33.816255,"lon":132.733905,"length":75,"name_kr":"요고"},"008777":{"code":"008777","name":"土橋","isMatched":true,"company":38,"line":107,"lat":33.83233,"lon":132.75597,"length":72,"name_kr":"도바시"},"008815":{"code":"008815","name":"岡田","isMatched":true,"company":38,"line":107,"lat":33.799165,"lon":132.72436,"length":72,"name_kr":"오카다"},"008803":{"code":"008803","name":"鎌田","isMatched":true,"company":38,"line":107,"lat":33.81012,"lon":132.7299,"length":72,"name_kr":"가마타"},"008825":{"code":"008825","name":"古泉","isMatched":true,"company":38,"line":107,"lat":33.792485,"lon":132.717115,"length":75,"name_kr":"고이즈미"},"008787":{"code":"008787","name":"土居田","isMatched":true,"company":38,"line":107,"lat":33.8241,"lon":132.7441,"length":71,"name_kr":"도이다"},"008828":{"code":"008828","name":"松前","isMatched":true,"company":38,"line":107,"lat":33.78591,"lon":132.705,"length":73,"name_kr":"마사키"},"008834":{"code":"008834","name":"地蔵町","isMatched":true,"company":38,"line":107,"lat":33.780005,"lon":132.704335,"length":79,"name_kr":"지조마치"},"008851":{"code":"008851","name":"郡中","isMatched":true,"company":38,"line":107,"lat":33.760705,"lon":132.704145,"length":72,"name_kr":"군추"},"008854":{"code":"008854","name":"郡中港","isMatched":true,"company":38,"line":107,"lat":33.75632,"lon":132.702145,"length":74,"name_kr":"군추코"},"008843":{"code":"008843","name":"新川","isMatched":true,"company":38,"line":107,"lat":33.77216,"lon":132.7044,"length":80,"name_kr":"신카와"},"008739":{"code":"008739","name":"古町","isMatched":true,"company":38,"line":108,"lat":33.84697,"lon":132.755005,"length":76,"name_kr":"고마치"},"008740":{"code":"008740","name":"古町","isMatched":true,"company":38,"line":100,"lat":33.84697,"lon":132.755005,"length":76,"name_kr":"고마치"},"008741":{"code":"008741","name":"古町","isMatched":true,"company":38,"line":102,"lat":33.84697,"lon":132.755005,"length":76,"name_kr":"고마치"},"008767":{"code":"008767","name":"大手町","isMatched":true,"company":38,"line":108,"lat":33.839745,"lon":132.75523,"length":76,"name_kr":"오테마치"},"008728":{"code":"008728","name":"西衣山","isMatched":true,"company":38,"line":108,"lat":33.85038,"lon":132.73401,"length":68,"name_kr":"니시키누야마"},"008724":{"code":"008724","name":"衣山","isMatched":true,"company":38,"line":108,"lat":33.85245,"lon":132.743985,"length":70,"name_kr":"기누야마"},"008709":{"code":"008709","name":"三津","isMatched":true,"company":38,"line":108,"lat":33.863775,"lon":132.719955,"length":72,"name_kr":"미쓰"},"008717":{"code":"008717","name":"山西","isMatched":true,"company":38,"line":108,"lat":33.85563,"lon":132.724165,"length":74,"name_kr":"야마니시"},"008695":{"code":"008695","name":"梅津寺","isMatched":true,"company":38,"line":108,"lat":33.87462,"lon":132.70763,"length":73,"name_kr":"바이신지"},"008687":{"code":"008687","name":"高浜","isMatched":true,"company":38,"line":108,"lat":33.883445,"lon":132.70219,"length":72,"name_kr":"다카하마"},"008699":{"code":"008699","name":"港山","isMatched":true,"company":38,"line":108,"lat":33.869575,"lon":132.7134,"length":71,"name_kr":"미나토야마"},"008756":{"code":"008756","name":"本町一丁目","isMatched":true,"company":38,"line":101,"lat":33.840755,"lon":132.75865,"length":59,"name_kr":"혼마치1초메"},"008757":{"code":"008757","name":"本町一丁目","isMatched":true,"company":38,"line":103,"lat":33.840755,"lon":132.75865,"length":59,"name_kr":"혼마치1초메"},"008764":{"code":"008764","name":"市役所前","isMatched":true,"company":38,"line":101,"lat":33.83995,"lon":132.764625,"length":51,"name_kr":"시야쿠쇼마에"},"008738":{"code":"008738","name":"南町","isMatched":true,"company":38,"line":101,"lat":33.84739,"lon":132.77952,"length":52,"name_kr":"미나미마치"},"008754":{"code":"008754","name":"大街道","isMatched":true,"company":38,"line":101,"lat":33.84125,"lon":132.769665,"length":51,"name_kr":"오카이도"},"008729":{"code":"008729","name":"道後温泉","isMatched":true,"company":38,"line":101,"lat":33.850355,"lon":132.785045,"length":52,"name_kr":"도고온센"},"008753":{"code":"008753","name":"勝山町","isMatched":true,"company":38,"line":101,"lat":33.84175,"lon":132.77482,"length":51,"name_kr":"가쓰야마초"},"008742":{"code":"008742","name":"上一万","isMatched":true,"company":38,"line":101,"lat":33.84681,"lon":132.775435,"length":44,"name_kr":"가미이치만"},"008743":{"code":"008743","name":"上一万","isMatched":true,"company":38,"line":106,"lat":33.84681,"lon":132.775435,"length":44,"name_kr":"가미이치만"},"008732":{"code":"008732","name":"道後公園","isMatched":true,"company":38,"line":101,"lat":33.848335,"lon":132.78495,"length":51,"name_kr":"도고코엔"},"008737":{"code":"008737","name":"平和通一丁目","isMatched":true,"company":38,"line":106,"lat":33.847715,"lon":132.77445,"length":50,"name_kr":"헤이와도리1초메"},"008736":{"code":"008736","name":"平和通一丁目","isMatched":true,"company":38,"line":100,"lat":33.847715,"lon":132.77445,"length":50,"name_kr":"헤이와도리1초메"},"008749":{"code":"008749","name":"警察署前","isMatched":true,"company":38,"line":101,"lat":33.84462,"lon":132.775365,"length":58,"name_kr":"게이사쓰쇼마에"},"008755":{"code":"008755","name":"県庁前","isMatched":true,"company":38,"line":101,"lat":33.84117,"lon":132.766345,"length":53,"name_kr":"겐초마에"},"008720":{"code":"008720","name":"木屋町","isMatched":true,"company":38,"line":100,"lat":33.853425,"lon":132.76098,"length":77,"name_kr":"기야마초"},"008733":{"code":"008733","name":"鉄砲町","isMatched":true,"company":38,"line":100,"lat":33.848285,"lon":132.768915,"length":76,"name_kr":"뎃포초"},"008726":{"code":"008726","name":"高砂町","isMatched":true,"company":38,"line":100,"lat":33.85175,"lon":132.762395,"length":77,"name_kr":"다카사고초"},"008725":{"code":"008725","name":"萱町六丁目","isMatched":true,"company":38,"line":100,"lat":33.85178,"lon":132.75622,"length":76,"name_kr":"가야마치6초메"},"008734":{"code":"008734","name":"赤十字病院前","isMatched":true,"company":38,"line":100,"lat":33.848115,"lon":132.77238,"length":78,"name_kr":"세키주지뵤인마에"},"008730":{"code":"008730","name":"清水町","isMatched":true,"company":38,"line":100,"lat":33.84924,"lon":132.76426,"length":76,"name_kr":"시미즈마치"},"008719":{"code":"008719","name":"本町六丁目","isMatched":true,"company":38,"line":100,"lat":33.85346,"lon":132.75823,"length":78,"name_kr":"혼마치6초메"},"008721":{"code":"008721","name":"本町六丁目","isMatched":true,"company":38,"line":103,"lat":33.85313,"lon":132.75884,"length":47,"name_kr":"혼마치6초메"},"008760":{"code":"008760","name":"大手町駅前","isMatched":true,"company":38,"line":102,"lat":33.840315,"lon":132.75547,"length":42,"name_kr":"오테마치에키마에"},"008758":{"code":"008758","name":"ＪＲ松山駅前","isMatched":true,"company":38,"line":102,"lat":33.840725,"lon":132.75234,"length":48,"name_kr":"JR마쓰야마에키마에"},"008751":{"code":"008751","name":"宮田町","isMatched":true,"company":38,"line":102,"lat":33.84392,"lon":132.75261,"length":68,"name_kr":"미야타마치"},"008762":{"code":"008762","name":"西堀端","isMatched":true,"company":38,"line":102,"lat":33.8403,"lon":132.758085,"length":54,"name_kr":"니시호리바타"},"008761":{"code":"008761","name":"西堀端","isMatched":true,"company":38,"line":101,"lat":33.8403,"lon":132.758085,"length":54,"name_kr":"니시호리바타"},"008727":{"code":"008727","name":"本町五丁目","isMatched":true,"company":38,"line":103,"lat":33.850805,"lon":132.75875,"length":48,"name_kr":"혼마치5초메"},"008735":{"code":"008735","name":"本町四丁目","isMatched":true,"company":38,"line":103,"lat":33.848055,"lon":132.75873,"length":50,"name_kr":"혼마치4초메"},"008748":{"code":"008748","name":"本町三丁目","isMatched":true,"company":38,"line":103,"lat":33.845125,"lon":132.758695,"length":57,"name_kr":"혼마치3초메"},"007265":{"code":"007265","name":"総社","isMatched":true,"company":29,"line":65,"lat":34.67418,"lon":133.738155,"length":273,"name_kr":"소자"},"007263":{"code":"007263","name":"総社","isMatched":true,"company":147,"line":462,"lat":34.67418,"lon":133.738155,"length":273,"name_kr":"소자"},"007264":{"code":"007264","name":"総社","isMatched":true,"company":147,"line":456,"lat":34.67418,"lon":133.738155,"length":273,"name_kr":"소자"},"007456":{"code":"007456","name":"清音","isMatched":true,"company":29,"line":65,"lat":34.644035,"lon":133.733505,"length":194,"name_kr":"기요네"},"007455":{"code":"007455","name":"清音","isMatched":true,"company":147,"line":456,"lat":34.644035,"lon":133.733505,"length":194,"name_kr":"기요네"},"007759":{"code":"007759","name":"神辺","isMatched":true,"company":29,"line":65,"lat":34.53744,"lon":133.37866,"length":72,"name_kr":"간나베"},"007758":{"code":"007758","name":"神辺","isMatched":true,"company":147,"line":491,"lat":34.53744,"lon":133.37866,"length":72,"name_kr":"간나베"},"007700":{"code":"007700","name":"御領","isMatched":true,"company":29,"line":65,"lat":34.564692,"lon":133.40221,"length":78,"name_kr":"고료"},"007634":{"code":"007634","name":"いずえ","isMatched":true,"company":29,"line":65,"lat":34.587975,"lon":133.450645,"length":75,"name_kr":"이즈에"},"007526":{"code":"007526","name":"吉備真備","isMatched":true,"company":29,"line":65,"lat":34.626817,"lon":133.69217,"length":76,"name_kr":"기비노마키비"},"007541":{"code":"007541","name":"備中呉妹","isMatched":true,"company":29,"line":65,"lat":34.62163,"lon":133.661847,"length":77,"name_kr":"빗추쿠레세"},"007589":{"code":"007589","name":"小田","isMatched":true,"company":29,"line":65,"lat":34.606015,"lon":133.54241,"length":74,"name_kr":"오다"},"007513":{"code":"007513","name":"矢掛","isMatched":true,"company":29,"line":65,"lat":34.629305,"lon":133.590235,"length":76,"name_kr":"야카게"},"007726":{"code":"007726","name":"湯野","isMatched":true,"company":29,"line":65,"lat":34.55286,"lon":133.387,"length":76,"name_kr":"유노"},"007651":{"code":"007651","name":"子守唄の里高屋","isMatched":true,"company":29,"line":65,"lat":34.58173,"lon":133.433325,"length":82,"name_kr":"고모리우타노사토타카야"},"007563":{"code":"007563","name":"三谷","isMatched":true,"company":29,"line":65,"lat":34.61643,"lon":133.619625,"length":74,"name_kr":"미타니"},"007624":{"code":"007624","name":"井原","isMatched":true,"company":29,"line":65,"lat":34.592775,"lon":133.46908,"length":102,"name_kr":"이하라"},"007619":{"code":"007619","name":"早雲の里荏原","isMatched":true,"company":29,"line":65,"lat":34.59668,"lon":133.50779,"length":75,"name_kr":"소운노사토에바라"},"007501":{"code":"007501","name":"川辺宿","isMatched":true,"company":29,"line":65,"lat":34.63241,"lon":133.71502,"length":76,"name_kr":"가와베주쿠"},"004848":{"code":"004848","name":"川跡","isMatched":true,"company":17,"line":25,"lat":35.395145,"lon":132.77641,"length":78,"name_kr":"가와토"},"004849":{"code":"004849","name":"川跡","isMatched":true,"company":17,"line":24,"lat":35.395145,"lon":132.77641,"length":78,"name_kr":"가와토"},"004863":{"code":"004863","name":"遥堪","isMatched":true,"company":17,"line":25,"lat":35.38922,"lon":132.72629,"length":74,"name_kr":"요칸"},"004858":{"code":"004858","name":"高浜","isMatched":true,"company":17,"line":25,"lat":35.39072,"lon":132.746687,"length":79,"name_kr":"다카하마"},"004864":{"code":"004864","name":"浜山公園北口","isMatched":true,"company":17,"line":25,"lat":35.38907,"lon":132.708135,"length":73,"name_kr":"하마야마코엔키타구치"},"004855":{"code":"004855","name":"出雲大社前","isMatched":true,"company":17,"line":25,"lat":35.393265,"lon":132.68766,"length":74,"name_kr":"이즈모타이샤마에"},"004763":{"code":"004763","name":"旅伏","isMatched":true,"company":17,"line":24,"lat":35.42119,"lon":132.80686,"length":73,"name_kr":"다부시"},"004648":{"code":"004648","name":"伊野灘","isMatched":true,"company":17,"line":24,"lat":35.461245,"lon":132.900885,"length":69,"name_kr":"이노나다"},"004607":{"code":"004607","name":"松江フォーゲルパーク","isMatched":true,"company":17,"line":24,"lat":35.474905,"lon":132.9437,"length":90,"name_kr":"마쓰에포겔파크"},"004661":{"code":"004661","name":"園","isMatched":true,"company":17,"line":24,"lat":35.456135,"lon":132.86813,"length":74,"name_kr":"소노"},"004673":{"code":"004673","name":"湖遊館新駅","isMatched":true,"company":17,"line":24,"lat":35.452685,"lon":132.862145,"length":76,"name_kr":"고유칸신에키"},"004585":{"code":"004585","name":"朝日ヶ丘","isMatched":true,"company":17,"line":24,"lat":35.480957,"lon":132.98778,"length":79,"name_kr":"아사히가오카"},"004589":{"code":"004589","name":"長江","isMatched":true,"company":17,"line":24,"lat":35.47984,"lon":132.974315,"length":77,"name_kr":"나가에"},"004678":{"code":"004678","name":"布崎","isMatched":true,"company":17,"line":24,"lat":35.450235,"lon":132.855005,"length":75,"name_kr":"누누자키"},"004625":{"code":"004625","name":"松江しんじ湖温泉","isMatched":true,"company":17,"line":24,"lat":35.46708,"lon":133.045395,"length":84,"name_kr":"마쓰에신지코온센"},"004916":{"code":"004916","name":"大津町","isMatched":true,"company":17,"line":24,"lat":35.369095,"lon":132.774325,"length":72,"name_kr":"오쓰마치"},"004610":{"code":"004610","name":"高ノ宮","isMatched":true,"company":17,"line":24,"lat":35.4718,"lon":132.930435,"length":72,"name_kr":"다카노미야"},"004599":{"code":"004599","name":"松江イングリッシュガーデン前","isMatched":true,"company":17,"line":24,"lat":35.47735,"lon":133.003985,"length":73,"name_kr":"마쓰에잉글리시가든마에"},"004868":{"code":"004868","name":"武志","isMatched":true,"company":17,"line":24,"lat":35.388,"lon":132.77327,"length":74,"name_kr":"다케시"},"004781":{"code":"004781","name":"美談","isMatched":true,"company":17,"line":24,"lat":35.412555,"lon":132.798105,"length":73,"name_kr":"미다미"},"004727":{"code":"004727","name":"雲州平田","isMatched":true,"company":17,"line":24,"lat":35.43231,"lon":132.82368,"length":72,"name_kr":"운슈히라타"},"004936":{"code":"004936","name":"出雲科学館パークタウン前","isMatched":true,"company":17,"line":24,"lat":35.363065,"lon":132.76651,"length":76,"name_kr":"이즈모카가쿠칸파크타운마에"},"004802":{"code":"004802","name":"大寺","isMatched":true,"company":17,"line":24,"lat":35.40442,"lon":132.787435,"length":70,"name_kr":"오테라"},"004600":{"code":"004600","name":"秋鹿町","isMatched":true,"company":17,"line":24,"lat":35.47723,"lon":132.95673,"length":82,"name_kr":"아이카마치"},"004637":{"code":"004637","name":"一畑口","isMatched":true,"company":17,"line":24,"lat":35.4646,"lon":132.882845,"length":109,"name_kr":"이치바타구치"},"004630":{"code":"004630","name":"津ノ森","isMatched":true,"company":17,"line":24,"lat":35.46635,"lon":132.91905,"length":75,"name_kr":"쓰노모리"},"004940":{"code":"004940","name":"電鉄出雲市","isMatched":true,"company":17,"line":24,"lat":35.361145,"lon":132.757805,"length":121,"name_kr":"덴테쓰이즈모시"},"005763":{"code":"005763","name":"木野","isMatched":true,"company":58,"line":155,"lat":35.071095,"lon":135.776535,"length":67,"name_kr":"기노"},"005728":{"code":"005728","name":"市原","isMatched":true,"company":58,"line":155,"lat":35.08816,"lon":135.76305,"length":72,"name_kr":"이치하라"},"005781":{"code":"005781","name":"八幡前","isMatched":true,"company":58,"line":155,"lat":35.06617,"lon":135.792445,"length":66,"name_kr":"하치만마에"},"005762":{"code":"005762","name":"岩倉","isMatched":true,"company":58,"line":155,"lat":35.071213,"lon":135.786373,"length":76,"name_kr":"이와쿠라"},"005756":{"code":"005756","name":"京都精華大前","isMatched":true,"company":58,"line":155,"lat":35.073055,"lon":135.76891,"length":65,"name_kr":"교토세이카다이마에"},"005810":{"code":"005810","name":"宝ヶ池","isMatched":true,"company":58,"line":155,"lat":35.058095,"lon":135.792315,"length":84,"name_kr":"다카라가이케"},"005811":{"code":"005811","name":"宝ヶ池","isMatched":true,"company":58,"line":154,"lat":35.05809,"lon":135.79246,"length":83,"name_kr":"다카라가이케"},"005661":{"code":"005661","name":"鞍馬","isMatched":true,"company":58,"line":155,"lat":35.1129,"lon":135.772255,"length":79,"name_kr":"구라마"},"005748":{"code":"005748","name":"二軒茶屋","isMatched":true,"company":58,"line":155,"lat":35.07803,"lon":135.765815,"length":72,"name_kr":"니켄차야"},"005706":{"code":"005706","name":"二ノ瀬","isMatched":true,"company":58,"line":155,"lat":35.097625,"lon":135.762985,"length":81,"name_kr":"니노세"},"005679":{"code":"005679","name":"貴船口","isMatched":true,"company":58,"line":155,"lat":35.105868,"lon":135.7636,"length":73,"name_kr":"기부네구치"},"005834":{"code":"005834","name":"修学院","isMatched":true,"company":58,"line":154,"lat":35.050005,"lon":135.7903,"length":81,"name_kr":"슈가쿠인"},"005786":{"code":"005786","name":"八瀬比叡山口","isMatched":true,"company":58,"line":154,"lat":35.06512,"lon":135.808345,"length":70,"name_kr":"야세히에이잔구치"},"005847":{"code":"005847","name":"一乗寺","isMatched":true,"company":58,"line":154,"lat":35.04438,"lon":135.78752,"length":73,"name_kr":"이치조지"},"005876":{"code":"005876","name":"出町柳","isMatched":true,"company":58,"line":154,"lat":35.03092,"lon":135.773545,"length":66,"name_kr":"데마치야나기"},"005878":{"code":"005878","name":"出町柳","isMatched":true,"company":35,"line":96,"lat":35.030038,"lon":135.772637,"length":189,"name_kr":"데마치야나기"},"005859":{"code":"005859","name":"茶山","isMatched":true,"company":58,"line":154,"lat":35.038395,"lon":135.78465,"length":57,"name_kr":"자야마"},"005793":{"code":"005793","name":"三宅八幡","isMatched":true,"company":58,"line":154,"lat":35.062375,"lon":135.79619,"length":73,"name_kr":"미야케하치만"},"005870":{"code":"005870","name":"元田中","isMatched":true,"company":58,"line":154,"lat":35.035015,"lon":135.78163,"length":72,"name_kr":"모토타나카"},"006700":{"code":"006700","name":"遠州小松","isMatched":true,"company":154,"line":549,"lat":34.78423,"lon":137.77784,"length":74,"name_kr":"엔슈코마쓰"},"006866":{"code":"006866","name":"上島","isMatched":true,"company":154,"line":549,"lat":34.741545,"lon":137.74557,"length":81,"name_kr":"가미지마"},"006673":{"code":"006673","name":"浜北","isMatched":true,"company":154,"line":549,"lat":34.79133,"lon":137.78434,"length":80,"name_kr":"하마키타"},"006525":{"code":"006525","name":"遠州芝本","isMatched":true,"company":154,"line":549,"lat":34.824055,"lon":137.798745,"length":77,"name_kr":"엔슈시바모토"},"006844":{"code":"006844","name":"自動車学校前","isMatched":true,"company":154,"line":549,"lat":34.747605,"lon":137.751635,"length":72,"name_kr":"지도샤갓코마에"},"006989":{"code":"006989","name":"八幡","isMatched":true,"company":154,"line":549,"lat":34.71707,"lon":137.73599,"length":101,"name_kr":"야하타"},"007022":{"code":"007022","name":"遠州病院","isMatched":true,"company":154,"line":549,"lat":34.710585,"lon":137.73343,"length":79,"name_kr":"엔슈뵤인"},"006480":{"code":"006480","name":"遠州岩水寺","isMatched":true,"company":154,"line":549,"lat":34.834355,"lon":137.80114,"length":77,"name_kr":"엔슈간스이지"},"007064":{"code":"007064","name":"新浜松","isMatched":true,"company":154,"line":549,"lat":34.70341,"lon":137.73246,"length":76,"name_kr":"신하마마쓰"},"006808":{"code":"006808","name":"さぎの宮","isMatched":true,"company":154,"line":549,"lat":34.757275,"lon":137.75732,"length":75,"name_kr":"사기노미야"},"006750":{"code":"006750","name":"積志","isMatched":true,"company":154,"line":549,"lat":34.76808,"lon":137.76341,"length":76,"name_kr":"세키시"},"006640":{"code":"006640","name":"美薗中央公園","isMatched":true,"company":154,"line":549,"lat":34.79816,"lon":137.78976,"length":75,"name_kr":"미소노추오코엔"},"006722":{"code":"006722","name":"遠州西ヶ崎","isMatched":true,"company":154,"line":549,"lat":34.77678,"lon":137.7739,"length":78,"name_kr":"엔슈니시가사키"},"006592":{"code":"006592","name":"遠州小林","isMatched":true,"company":154,"line":549,"lat":34.808345,"lon":137.79555,"length":75,"name_kr":"엔슈코바야시"},"006959":{"code":"006959","name":"助信","isMatched":true,"company":154,"line":549,"lat":34.7236,"lon":137.738465,"length":74,"name_kr":"스케노부"},"006913":{"code":"006913","name":"曳馬","isMatched":true,"company":154,"line":549,"lat":34.733215,"lon":137.74146,"length":70,"name_kr":"히쿠마"},"007035":{"code":"007035","name":"第一通り","isMatched":true,"company":154,"line":549,"lat":34.707555,"lon":137.732855,"length":101,"name_kr":"다이이치도리"},"006450":{"code":"006450","name":"西鹿島","isMatched":true,"company":154,"line":549,"lat":34.84675,"lon":137.807955,"length":76,"name_kr":"니시카지마"},"006447":{"code":"006447","name":"西鹿島","isMatched":true,"company":75,"line":218,"lat":34.846755,"lon":137.80794,"length":75,"name_kr":"니시카지마"},"004656":{"code":"004656","name":"みなとみらい","isMatched":true,"company":111,"line":395,"lat":35.457675,"lon":139.63246,"length":210,"name_kr":"미나토미라이"},"004704":{"code":"004704","name":"元町・中華街","isMatched":true,"company":111,"line":395,"lat":35.442305,"lon":139.65074,"length":228,"name_kr":"모토마치·주카가이"},"004647":{"code":"004647","name":"新高島","isMatched":true,"company":111,"line":395,"lat":35.461955,"lon":139.626485,"length":148,"name_kr":"신타카시마"},"004679":{"code":"004679","name":"馬車道","isMatched":true,"company":111,"line":395,"lat":35.450075,"lon":139.6362,"length":206,"name_kr":"바샤미치"},"004686":{"code":"004686","name":"日本大通り","isMatched":true,"company":111,"line":395,"lat":35.446795,"lon":139.642725,"length":215,"name_kr":"니혼오도리"},"004629":{"code":"004629","name":"横浜","isMatched":true,"company":111,"line":395,"lat":35.466435,"lon":139.62235,"length":121,"name_kr":"요코하마"},"004636":{"code":"004636","name":"横浜","isMatched":true,"company":110,"line":393,"lat":35.465406,"lon":139.620144,"length":184,"name_kr":"요코하마"},"004631":{"code":"004631","name":"横浜","isMatched":true,"company":31,"line":75,"lat":35.46625,"lon":139.623125,"length":548,"name_kr":"요코하마"},"004628":{"code":"004628","name":"横浜","isMatched":true,"company":102,"line":290,"lat":35.466435,"lon":139.62235,"length":121,"name_kr":"요코하마"},"004635":{"code":"004635","name":"横浜","isMatched":true,"company":103,"line":332,"lat":35.465408,"lon":139.622253,"length":281,"name_kr":"요코하마"},"004634":{"code":"004634","name":"横浜","isMatched":true,"company":103,"line":330,"lat":35.465408,"lon":139.622253,"length":576,"name_kr":"요코하마"},"004721":{"code":"004721","name":"吉野町","isMatched":true,"company":110,"line":392,"lat":35.43539,"lon":139.618567,"length":147,"name_kr":"요시노초"},"004718":{"code":"004718","name":"阪東橋","isMatched":true,"company":110,"line":392,"lat":35.43754,"lon":139.62497,"length":154,"name_kr":"반도바시"},"004816":{"code":"004816","name":"港南中央","isMatched":true,"company":110,"line":392,"lat":35.40123,"lon":139.591215,"length":147,"name_kr":"고난추오"},"004708":{"code":"004708","name":"伊勢佐木長者町","isMatched":true,"company":110,"line":392,"lat":35.440945,"lon":139.63266,"length":153,"name_kr":"이세자키초자마치"},"004791":{"code":"004791","name":"上大岡","isMatched":true,"company":110,"line":392,"lat":35.409205,"lon":139.59598,"length":148,"name_kr":"가미오오카"},"004790":{"code":"004790","name":"上大岡","isMatched":true,"company":31,"line":75,"lat":35.409345,"lon":139.59661,"length":204,"name_kr":"가미오오카"},"004761":{"code":"004761","name":"弘明寺","isMatched":true,"company":110,"line":392,"lat":35.42298,"lon":139.601997,"length":147,"name_kr":"구묘지"},"004737":{"code":"004737","name":"蒔田","isMatched":true,"company":110,"line":392,"lat":35.43031,"lon":139.61053,"length":145,"name_kr":"마이타"},"004691":{"code":"004691","name":"関内","isMatched":true,"company":110,"line":392,"lat":35.44577,"lon":139.63602,"length":156,"name_kr":"간나이"},"004692":{"code":"004692","name":"関内","isMatched":true,"company":110,"line":393,"lat":35.44577,"lon":139.63602,"length":156,"name_kr":"간나이"},"004699":{"code":"004699","name":"関内","isMatched":true,"company":103,"line":332,"lat":35.44422,"lon":139.635987,"length":200,"name_kr":"간나이"},"004842":{"code":"004842","name":"湘南台","isMatched":true,"company":110,"line":392,"lat":35.39624,"lon":139.46612,"length":174,"name_kr":"쇼난다이"},"004840":{"code":"004840","name":"湘南台","isMatched":true,"company":79,"line":234,"lat":35.396545,"lon":139.46647,"length":107,"name_kr":"쇼난다이"},"004843":{"code":"004843","name":"湘南台","isMatched":true,"company":127,"line":416,"lat":35.39624,"lon":139.46612,"length":174,"name_kr":"쇼난다이"},"004796":{"code":"004796","name":"踊場","isMatched":true,"company":110,"line":392,"lat":35.40555,"lon":139.518577,"length":129,"name_kr":"오도리바"},"004810":{"code":"004810","name":"舞岡","isMatched":true,"company":110,"line":392,"lat":35.402535,"lon":139.551265,"length":139,"name_kr":"마이오카"},"004815":{"code":"004815","name":"上永谷","isMatched":true,"company":110,"line":392,"lat":35.40137,"lon":139.57279,"length":128,"name_kr":"가미나가야"},"004808":{"code":"004808","name":"下永谷","isMatched":true,"company":110,"line":392,"lat":35.40276,"lon":139.559045,"length":122,"name_kr":"시모나가야"},"004786":{"code":"004786","name":"中田","isMatched":true,"company":110,"line":392,"lat":35.411155,"lon":139.51122,"length":119,"name_kr":"나카타"},"004775":{"code":"004775","name":"立場","isMatched":true,"company":110,"line":392,"lat":35.41438,"lon":139.5007,"length":119,"name_kr":"다테바"},"004818":{"code":"004818","name":"戸塚","isMatched":true,"company":110,"line":392,"lat":35.40109,"lon":139.53489,"length":123,"name_kr":"도쓰카"},"004824":{"code":"004824","name":"戸塚","isMatched":true,"company":103,"line":330,"lat":35.400099,"lon":139.534413,"length":290,"name_kr":"도쓰카"},"004805":{"code":"004805","name":"下飯田","isMatched":true,"company":110,"line":392,"lat":35.403375,"lon":139.482885,"length":74,"name_kr":"시모이다"},"004416":{"code":"004416","name":"仲町台","isMatched":true,"company":110,"line":393,"lat":35.535315,"lon":139.589515,"length":142,"name_kr":"나카마치다이"},"004654":{"code":"004654","name":"高島町","isMatched":true,"company":110,"line":393,"lat":35.458695,"lon":139.62365,"length":159,"name_kr":"다카시마초"},"004459":{"code":"004459","name":"北新横浜","isMatched":true,"company":110,"line":393,"lat":35.519215,"lon":139.61285,"length":70,"name_kr":"기타신요코하마"},"004602":{"code":"004602","name":"三ツ沢上町","isMatched":true,"company":110,"line":393,"lat":35.47642,"lon":139.60553,"length":110,"name_kr":"미쓰자와카미초"},"004439":{"code":"004439","name":"新羽","isMatched":true,"company":110,"line":393,"lat":35.52726,"lon":139.612053,"length":109,"name_kr":"닛파"},"004539":{"code":"004539","name":"岸根公園","isMatched":true,"company":110,"line":393,"lat":35.49551,"lon":139.616545,"length":113,"name_kr":"기시네코엔"},"004551":{"code":"004551","name":"片倉町","isMatched":true,"company":110,"line":393,"lat":35.49,"lon":139.60643,"length":141,"name_kr":"가타쿠라초"},"004601":{"code":"004601","name":"三ツ沢下町","isMatched":true,"company":110,"line":393,"lat":35.476485,"lon":139.615215,"length":166,"name_kr":"미쓰자와시모초"},"004353":{"code":"004353","name":"センター北","isMatched":true,"company":110,"line":393,"lat":35.553205,"lon":139.578215,"length":176,"name_kr":"센터 기타"},"004354":{"code":"004354","name":"センター北","isMatched":true,"company":110,"line":394,"lat":35.553005,"lon":139.57834,"length":195,"name_kr":"센터 기타"},"004493":{"code":"004493","name":"新横浜","isMatched":true,"company":110,"line":393,"lat":35.509055,"lon":139.617245,"length":77,"name_kr":"신요코하마"},"004501":{"code":"004501","name":"新横浜","isMatched":true,"company":106,"line":381,"lat":35.506982,"lon":139.617195,"length":452,"name_kr":"신요코하마"},"004504":{"code":"004504","name":"新横浜","isMatched":true,"company":103,"line":333,"lat":35.506765,"lon":139.617425,"length":194,"name_kr":"신요코하마"},"004682":{"code":"004682","name":"桜木町","isMatched":true,"company":110,"line":393,"lat":35.449637,"lon":139.630743,"length":146,"name_kr":"사쿠라기초"},"004675":{"code":"004675","name":"桜木町","isMatched":true,"company":103,"line":332,"lat":35.4511,"lon":139.63088,"length":226,"name_kr":"사쿠라기초"},"004380":{"code":"004380","name":"センター南","isMatched":true,"company":110,"line":393,"lat":35.545167,"lon":139.574215,"length":143,"name_kr":"센터 미나미"},"004381":{"code":"004381","name":"センター南","isMatched":true,"company":110,"line":394,"lat":35.545215,"lon":139.574515,"length":167,"name_kr":"센터 미나미"},"004316":{"code":"004316","name":"あざみ野","isMatched":true,"company":110,"line":393,"lat":35.567955,"lon":139.554155,"length":113,"name_kr":"아자미노"},"004314":{"code":"004314","name":"あざみ野","isMatched":true,"company":102,"line":292,"lat":35.56878,"lon":139.553547,"length":82,"name_kr":"아자미노"},"004325":{"code":"004325","name":"中川","isMatched":true,"company":110,"line":393,"lat":35.563085,"lon":139.56968,"length":127,"name_kr":"나카가와"},"004993":{"code":"004993","name":"八景島","isMatched":true,"company":109,"line":391,"lat":35.340895,"lon":139.64083,"length":78,"name_kr":"핫케이지마"},"004962":{"code":"004962","name":"産業振興センター","isMatched":true,"company":109,"line":391,"lat":35.353425,"lon":139.646325,"length":77,"name_kr":"산교신코센터"},"005025":{"code":"005025","name":"野島公園","isMatched":true,"company":109,"line":391,"lat":35.330595,"lon":139.631555,"length":71,"name_kr":"노지마코엔"},"004951":{"code":"004951","name":"幸浦","isMatched":true,"company":109,"line":391,"lat":35.358395,"lon":139.64369,"length":77,"name_kr":"사치우라"},"004988":{"code":"004988","name":"海の公園柴口","isMatched":true,"company":109,"line":391,"lat":35.34212,"lon":139.63591,"length":78,"name_kr":"우미노코엔시바구치"},"004910":{"code":"004910","name":"並木北","isMatched":true,"company":109,"line":391,"lat":35.372015,"lon":139.64273,"length":84,"name_kr":"나미키키타"},"004896":{"code":"004896","name":"鳥浜","isMatched":true,"company":109,"line":391,"lat":35.37718,"lon":139.6418,"length":73,"name_kr":"도리하마"},"005019":{"code":"005019","name":"金沢八景","isMatched":true,"company":109,"line":391,"lat":35.331606,"lon":139.620735,"length":75,"name_kr":"가나자와핫케이"},"005020":{"code":"005020","name":"金沢八景","isMatched":true,"company":31,"line":77,"lat":35.33113,"lon":139.620125,"length":147,"name_kr":"가나자와핫케이"},"005021":{"code":"005021","name":"金沢八景","isMatched":true,"company":31,"line":75,"lat":35.33113,"lon":139.620125,"length":147,"name_kr":"가나자와핫케이"},"004930":{"code":"004930","name":"並木中央","isMatched":true,"company":109,"line":391,"lat":35.36545,"lon":139.642985,"length":78,"name_kr":"나미키추오"},"004876":{"code":"004876","name":"新杉田","isMatched":true,"company":109,"line":391,"lat":35.38571,"lon":139.620745,"length":84,"name_kr":"신스기타"},"004872":{"code":"004872","name":"新杉田","isMatched":true,"company":103,"line":332,"lat":35.3868,"lon":139.619435,"length":197,"name_kr":"신스기타"},"005003":{"code":"005003","name":"海の公園南口","isMatched":true,"company":109,"line":391,"lat":35.3372,"lon":139.63214,"length":76,"name_kr":"우미노코엔미나미구치"},"004886":{"code":"004886","name":"南部市場","isMatched":true,"company":109,"line":391,"lat":35.380185,"lon":139.633205,"length":74,"name_kr":"난부시조"},"004968":{"code":"004968","name":"福浦","isMatched":true,"company":109,"line":391,"lat":35.34961,"lon":139.648535,"length":76,"name_kr":"후쿠우라"},"004984":{"code":"004984","name":"市大医学部","isMatched":true,"company":109,"line":391,"lat":35.343905,"lon":139.65013,"length":77,"name_kr":"시다이이가쿠부"},"007333":{"code":"007333","name":"柳川","isMatched":true,"company":83,"line":240,"lat":34.66554,"lon":133.92533,"length":49,"name_kr":"야나가와"},"007335":{"code":"007335","name":"柳川","isMatched":true,"company":83,"line":239,"lat":34.66554,"lon":133.92533,"length":49,"name_kr":"야나가와"},"007369":{"code":"007369","name":"田町","isMatched":true,"company":83,"line":240,"lat":34.66077,"lon":133.92633,"length":44,"name_kr":"다마치"},"007358":{"code":"007358","name":"郵便局前","isMatched":true,"company":83,"line":240,"lat":34.662745,"lon":133.926325,"length":46,"name_kr":"유빈쿄쿠마에"},"007375":{"code":"007375","name":"新西大寺町筋","isMatched":true,"company":83,"line":240,"lat":34.65872,"lon":133.92633,"length":47,"name_kr":"신사이다이지초스지"},"007392":{"code":"007392","name":"大雲寺前","isMatched":true,"company":83,"line":240,"lat":34.656615,"lon":133.92632,"length":46,"name_kr":"다이운지마에"},"007418":{"code":"007418","name":"清輝橋","isMatched":true,"company":83,"line":240,"lat":34.651735,"lon":133.925855,"length":50,"name_kr":"세이키바시"},"007334":{"code":"007334","name":"西川緑道公園","isMatched":true,"company":83,"line":239,"lat":34.66554,"lon":133.923285,"length":50,"name_kr":"니시가와료쿠도코엔"},"007337":{"code":"007337","name":"岡山駅前","isMatched":true,"company":83,"line":239,"lat":34.66551,"lon":133.91968,"length":51,"name_kr":"오카야마에키마에"},"007377":{"code":"007377","name":"西大寺町","isMatched":true,"company":83,"line":239,"lat":34.65865,"lon":133.930575,"length":51,"name_kr":"사이다이지초"},"007397":{"code":"007397","name":"東山・おかでんミュージアム","isMatched":true,"company":83,"line":239,"lat":34.65618,"lon":133.94298,"length":49,"name_kr":"히가시야마오카덴뮤지엄"},"007360":{"code":"007360","name":"県庁通り","isMatched":true,"company":83,"line":239,"lat":34.662675,"lon":133.930505,"length":52,"name_kr":"겐초도리"},"007398":{"code":"007398","name":"門田屋敷","isMatched":true,"company":83,"line":239,"lat":34.656175,"lon":133.93899,"length":51,"name_kr":"가도타야시키"},"007331":{"code":"007331","name":"城下","isMatched":true,"company":83,"line":239,"lat":34.665565,"lon":133.929765,"length":50,"name_kr":"시로시타 "},"007388":{"code":"007388","name":"中納言","isMatched":true,"company":83,"line":239,"lat":34.657505,"lon":133.937565,"length":53,"name_kr":"주나곤"},"007387":{"code":"007387","name":"小橋","isMatched":true,"company":83,"line":239,"lat":34.65763,"lon":133.93659,"length":46,"name_kr":"고바시"},"010139":{"code":"010139","name":"壺川","isMatched":true,"company":117,"line":401,"lat":26.205785,"lon":127.67838,"length":78,"name_kr":"쓰보가와"},"010134":{"code":"010134","name":"牧志","isMatched":true,"company":117,"line":401,"lat":26.217115,"lon":127.69256,"length":46,"name_kr":"마키시"},"010135":{"code":"010135","name":"安里","isMatched":true,"company":117,"line":401,"lat":26.216745,"lon":127.69573,"length":63,"name_kr":"아사토"},"010136":{"code":"010136","name":"県庁前","isMatched":true,"company":117,"line":401,"lat":26.21439,"lon":127.679315,"length":47,"name_kr":"겐초마에"},"010133":{"code":"010133","name":"美栄橋","isMatched":true,"company":117,"line":401,"lat":26.21916,"lon":127.68442,"length":52,"name_kr":"미에바시"},"010137":{"code":"010137","name":"旭橋","isMatched":true,"company":117,"line":401,"lat":26.21195,"lon":127.67548,"length":75,"name_kr":"아사히바시"},"010130":{"code":"010130","name":"儀保","isMatched":true,"company":117,"line":401,"lat":26.224495,"lon":127.719295,"length":86,"name_kr":"기보"},"010138":{"code":"010138","name":"那覇空港","isMatched":true,"company":117,"line":401,"lat":26.20666,"lon":127.652285,"length":67,"name_kr":"나하공항"},"010132":{"code":"010132","name":"首里","isMatched":true,"company":117,"line":401,"lat":26.219175,"lon":127.725558,"length":86,"name_kr":"슈리"},"010131":{"code":"010131","name":"おもろまち","isMatched":true,"company":117,"line":401,"lat":26.22266,"lon":127.69848,"length":51,"name_kr":"오모로마치"},"010128":{"code":"010128","name":"市立病院前","isMatched":true,"company":117,"line":401,"lat":26.227335,"lon":127.71027,"length":65,"name_kr":"시립병원앞"},"010141":{"code":"010141","name":"小禄","isMatched":true,"company":117,"line":401,"lat":26.19655,"lon":127.66703,"length":65,"name_kr":"오로쿠"},"010142":{"code":"010142","name":"赤嶺","isMatched":true,"company":117,"line":401,"lat":26.193265,"lon":127.660665,"length":73,"name_kr":"아카미네"},"010140":{"code":"010140","name":"奥武山公園","isMatched":true,"company":117,"line":401,"lat":26.200655,"lon":127.67524,"length":65,"name_kr":"오노야마공원"},"001578":{"code":"001578","name":"養鱒公園","isMatched":true,"company":43,"line":114,"lat":37.224515,"lon":139.84182,"length":77,"name_kr":"요손코엔"},"001628":{"code":"001628","name":"七ヶ岳登山口","isMatched":true,"company":43,"line":114,"lat":37.12418,"lon":139.717383,"length":68,"name_kr":"나나쓰가타케토잔구치"},"001549":{"code":"001549","name":"湯野上温泉","isMatched":true,"company":43,"line":114,"lat":37.304035,"lon":139.895185,"length":77,"name_kr":"유노카미온센"},"001511":{"code":"001511","name":"芦ノ牧温泉","isMatched":true,"company":43,"line":114,"lat":37.39541,"lon":139.932245,"length":85,"name_kr":"아시노마키온센"},"001481":{"code":"001481","name":"南若松","isMatched":true,"company":43,"line":114,"lat":37.459038,"lon":139.914447,"length":77,"name_kr":"미나미와카마쓰"},"001585":{"code":"001585","name":"田島高校前","isMatched":true,"company":43,"line":114,"lat":37.209555,"lon":139.80079,"length":77,"name_kr":"다지마코코마에"},"001612":{"code":"001612","name":"会津荒海","isMatched":true,"company":43,"line":114,"lat":37.153307,"lon":139.73369,"length":70,"name_kr":"아이즈아라카이"},"001570":{"code":"001570","name":"ふるさと公園","isMatched":true,"company":43,"line":114,"lat":37.24327,"lon":139.859025,"length":66,"name_kr":"후루사토코엔"},"001595":{"code":"001595","name":"中荒井","isMatched":true,"company":43,"line":114,"lat":37.180235,"lon":139.750935,"length":78,"name_kr":"나카아라이"},"001565":{"code":"001565","name":"会津下郷","isMatched":true,"company":43,"line":114,"lat":37.255175,"lon":139.864945,"length":74,"name_kr":"아이즈시모고"},"001494":{"code":"001494","name":"門田","isMatched":true,"company":43,"line":114,"lat":37.442517,"lon":139.91378,"length":79,"name_kr":"몬덴"},"001556":{"code":"001556","name":"塔のへつり","isMatched":true,"company":43,"line":114,"lat":37.274575,"lon":139.9015,"length":73,"name_kr":"도노헤쓰리"},"001588":{"code":"001588","name":"会津田島","isMatched":true,"company":43,"line":114,"lat":37.203265,"lon":139.77431,"length":76,"name_kr":"아이즈타지마"},"001500":{"code":"001500","name":"あまや","isMatched":true,"company":43,"line":114,"lat":37.41721,"lon":139.917597,"length":70,"name_kr":"아마야"},"001616":{"code":"001616","name":"会津山村道場","isMatched":true,"company":43,"line":114,"lat":37.1442,"lon":139.73176,"length":107,"name_kr":"아이즈산손도조"},"001541":{"code":"001541","name":"芦ノ牧温泉南","isMatched":true,"company":43,"line":114,"lat":37.334585,"lon":139.918655,"length":69,"name_kr":"아시노마키온센미나미"},"001534":{"code":"001534","name":"大川ダム公園","isMatched":true,"company":43,"line":114,"lat":37.34682,"lon":139.920775,"length":75,"name_kr":"오카와다무코엔"},"001580":{"code":"001580","name":"会津長野","isMatched":true,"company":43,"line":114,"lat":37.2153,"lon":139.823845,"length":78,"name_kr":"아이즈나가노"},"001561":{"code":"001561","name":"弥五島","isMatched":true,"company":43,"line":114,"lat":37.26634,"lon":139.88998,"length":79,"name_kr":"야고시마"},"001468":{"code":"001468","name":"西若松","isMatched":true,"company":43,"line":114,"lat":37.486083,"lon":139.91416,"length":222,"name_kr":"니시와카마쓰"},"001467":{"code":"001467","name":"西若松","isMatched":true,"company":103,"line":312,"lat":37.485887,"lon":139.914097,"length":223,"name_kr":"니시와카마쓰"},"001642":{"code":"001642","name":"会津高原尾瀬口","isMatched":true,"company":43,"line":114,"lat":37.090027,"lon":139.705123,"length":76,"name_kr":"아이즈코겐오제구치"},"001641":{"code":"001641","name":"会津高原尾瀬口","isMatched":true,"company":155,"line":550,"lat":37.090027,"lon":139.705123,"length":76,"name_kr":"아이즈코겐오제구치"},"005479":{"code":"005479","name":"岳南原田","isMatched":true,"company":84,"line":241,"lat":35.16609,"lon":138.7046,"length":73,"name_kr":"가쿠난하라다"},"005501":{"code":"005501","name":"須津","isMatched":true,"company":84,"line":241,"lat":35.16047,"lon":138.73392,"length":73,"name_kr":"스도"},"005505":{"code":"005505","name":"ジヤトコ前","isMatched":true,"company":84,"line":241,"lat":35.15776,"lon":138.69004,"length":58,"name_kr":"자토코마에"},"005493":{"code":"005493","name":"比奈","isMatched":true,"company":84,"line":241,"lat":35.16148,"lon":138.713625,"length":79,"name_kr":"히나"},"005497":{"code":"005497","name":"岳南富士岡","isMatched":true,"company":84,"line":241,"lat":35.16095,"lon":138.72339,"length":75,"name_kr":"가쿠난후지오카"},"005543":{"code":"005543","name":"吉原","isMatched":true,"company":84,"line":241,"lat":35.14444,"lon":138.701235,"length":66,"name_kr":"요시와라"},"005544":{"code":"005544","name":"吉原","isMatched":true,"company":106,"line":382,"lat":35.143885,"lon":138.70264,"length":267,"name_kr":"요시와라"},"005499":{"code":"005499","name":"吉原本町","isMatched":true,"company":84,"line":241,"lat":35.16077,"lon":138.68973,"length":69,"name_kr":"요시와라혼초"},"005513":{"code":"005513","name":"岳南江尾","isMatched":true,"company":84,"line":241,"lat":35.155245,"lon":138.75183,"length":91,"name_kr":"가쿠난에노오"},"005491":{"code":"005491","name":"本吉原","isMatched":true,"company":84,"line":241,"lat":35.16197,"lon":138.69281,"length":77,"name_kr":"혼요시와라"},"005496":{"code":"005496","name":"神谷","isMatched":true,"company":84,"line":241,"lat":35.16098,"lon":138.74302,"length":70,"name_kr":"가미야"},"009294":{"code":"009294","name":"基山","isMatched":true,"company":124,"line":413,"lat":33.421282,"lon":130.532294,"length":241,"name_kr":"기야마"},"009293":{"code":"009293","name":"基山","isMatched":true,"company":28,"line":64,"lat":33.421282,"lon":130.532294,"length":241,"name_kr":"기야마"},"009310":{"code":"009310","name":"松崎","isMatched":true,"company":124,"line":413,"lat":33.399735,"lon":130.582105,"length":87,"name_kr":"마쓰자키"},"009312":{"code":"009312","name":"大板井","isMatched":true,"company":124,"line":413,"lat":33.3985,"lon":130.561085,"length":72,"name_kr":"오이타이"},"009298":{"code":"009298","name":"高田","isMatched":true,"company":124,"line":413,"lat":33.414205,"lon":130.63402,"length":96,"name_kr":"다카타"},"009313":{"code":"009313","name":"小郡","isMatched":true,"company":124,"line":413,"lat":33.39748,"lon":130.553165,"length":69,"name_kr":"오고리"},"009301":{"code":"009301","name":"立野","isMatched":true,"company":124,"line":413,"lat":33.41255,"lon":130.539283,"length":74,"name_kr":"다테노"},"009308":{"code":"009308","name":"今隈","isMatched":true,"company":124,"line":413,"lat":33.404145,"lon":130.594275,"length":101,"name_kr":"이마구마"},"009305":{"code":"009305","name":"西太刀洗","isMatched":true,"company":124,"line":413,"lat":33.407847,"lon":130.599243,"length":87,"name_kr":"니시타치아라이"},"009299":{"code":"009299","name":"山隈","isMatched":true,"company":124,"line":413,"lat":33.414055,"lon":130.61007,"length":77,"name_kr":"야마구마"},"009296":{"code":"009296","name":"甘木","isMatched":true,"company":124,"line":413,"lat":33.418943,"lon":130.65284,"length":206,"name_kr":"아마기"},"009300":{"code":"009300","name":"太刀洗","isMatched":true,"company":124,"line":413,"lat":33.413925,"lon":130.618875,"length":73,"name_kr":"다치아라이"},"002544":{"code":"002544","name":"大宝","isMatched":true,"company":161,"line":560,"lat":36.20316,"lon":139.97019,"length":71,"name_kr":"다이호"},"002491":{"code":"002491","name":"黒子","isMatched":true,"company":161,"line":560,"lat":36.2472,"lon":139.975,"length":85,"name_kr":"구로고"},"002421":{"code":"002421","name":"下館","isMatched":true,"company":161,"line":560,"lat":36.303865,"lon":139.978205,"length":121,"name_kr":"시모다테"},"002420":{"code":"002420","name":"下館","isMatched":true,"company":128,"line":419,"lat":36.304125,"lon":139.978185,"length":330,"name_kr":"시모다테"},"002419":{"code":"002419","name":"下館","isMatched":true,"company":103,"line":337,"lat":36.304125,"lon":139.978185,"length":330,"name_kr":"시모다테"},"002518":{"code":"002518","name":"騰波ノ江","isMatched":true,"company":161,"line":560,"lat":36.22323,"lon":139.976285,"length":85,"name_kr":"도바노에"},"002557":{"code":"002557","name":"下妻","isMatched":true,"company":161,"line":560,"lat":36.182285,"lon":139.96448,"length":108,"name_kr":"시모쓰마"},"002450":{"code":"002450","name":"大田郷","isMatched":true,"company":161,"line":560,"lat":36.27827,"lon":139.959715,"length":144,"name_kr":"오타고"},"002704":{"code":"002704","name":"中妻","isMatched":true,"company":161,"line":560,"lat":36.047275,"lon":139.990705,"length":84,"name_kr":"나카쓰마"},"002898":{"code":"002898","name":"寺原","isMatched":true,"company":161,"line":560,"lat":35.91172,"lon":140.054805,"length":127,"name_kr":"데라하라"},"002574":{"code":"002574","name":"宗道","isMatched":true,"company":161,"line":560,"lat":36.15362,"lon":139.97059,"length":156,"name_kr":"소도"},"002868":{"code":"002868","name":"戸頭","isMatched":true,"company":161,"line":560,"lat":35.929365,"lon":140.0143,"length":104,"name_kr":"도가시라"},"002925":{"code":"002925","name":"取手","isMatched":true,"company":161,"line":560,"lat":35.897385,"lon":140.06384,"length":61,"name_kr":"도리데"},"002930":{"code":"002930","name":"取手","isMatched":true,"company":103,"line":324,"lat":35.895727,"lon":140.062928,"length":452,"name_kr":"도리데"},"002721":{"code":"002721","name":"北水海道","isMatched":true,"company":161,"line":560,"lat":36.03209,"lon":139.992835,"length":87,"name_kr":"기타미쓰카이도"},"002613":{"code":"002613","name":"石下","isMatched":true,"company":161,"line":560,"lat":36.117055,"lon":139.974385,"length":114,"name_kr":"이시게"},"002830":{"code":"002830","name":"守谷","isMatched":true,"company":161,"line":560,"lat":35.95082,"lon":139.99213,"length":96,"name_kr":"모리야"},"002834":{"code":"002834","name":"守谷","isMatched":true,"company":171,"line":584,"lat":35.950015,"lon":139.99201,"length":133,"name_kr":"모리야"},"002888":{"code":"002888","name":"新取手","isMatched":true,"company":161,"line":560,"lat":35.91766,"lon":140.04216,"length":145,"name_kr":"신토리데"},"002902":{"code":"002902","name":"西取手","isMatched":true,"company":161,"line":560,"lat":35.90859,"lon":140.059435,"length":152,"name_kr":"니시토리데"},"002858":{"code":"002858","name":"南守谷","isMatched":true,"company":161,"line":560,"lat":35.93409,"lon":140.00276,"length":190,"name_kr":"미나미모리야"},"002872":{"code":"002872","name":"稲戸井","isMatched":true,"company":161,"line":560,"lat":35.92612,"lon":140.02269,"length":104,"name_kr":"이나토이"},"002782":{"code":"002782","name":"小絹","isMatched":true,"company":161,"line":560,"lat":35.98114,"lon":139.98335,"length":117,"name_kr":"고키누"},"002628":{"code":"002628","name":"南石下","isMatched":true,"company":161,"line":560,"lat":36.102315,"lon":139.973945,"length":77,"name_kr":"미나미이시게"},"002674":{"code":"002674","name":"三妻","isMatched":true,"company":161,"line":560,"lat":36.07346,"lon":139.983105,"length":71,"name_kr":"미쓰마"},"002596":{"code":"002596","name":"玉村","isMatched":true,"company":161,"line":560,"lat":36.135515,"lon":139.969965,"length":72,"name_kr":"다마무라"},"002736":{"code":"002736","name":"水海道","isMatched":true,"company":161,"line":560,"lat":36.01782,"lon":139.991395,"length":135,"name_kr":"미쓰카이도"},"002809":{"code":"002809","name":"新守谷","isMatched":true,"company":161,"line":560,"lat":35.966375,"lon":139.985782,"length":104,"name_kr":"신모리야"},"002886":{"code":"002886","name":"入地","isMatched":true,"company":161,"line":561,"lat":35.919015,"lon":140.15724,"length":71,"name_kr":"이레지"},"002903":{"code":"002903","name":"竜ヶ崎","isMatched":true,"company":161,"line":561,"lat":35.908555,"lon":140.17889,"length":72,"name_kr":"류가사키"},"002867":{"code":"002867","name":"佐貫","isMatched":true,"company":161,"line":561,"lat":35.929405,"lon":140.13826,"length":78,"name_kr":"사누키"},"008672":{"code":"008672","name":"紀伊御坊","isMatched":true,"company":141,"line":445,"lat":33.894345,"lon":135.154765,"length":79,"name_kr":"기이고보"},"008658":{"code":"008658","name":"御坊","isMatched":true,"company":141,"line":445,"lat":33.90762,"lon":135.15877,"length":192,"name_kr":"고보"},"008657":{"code":"008657","name":"御坊","isMatched":true,"company":147,"line":493,"lat":33.907735,"lon":135.15873,"length":190,"name_kr":"고보"},"008676":{"code":"008676","name":"市役所前","isMatched":true,"company":141,"line":445,"lat":33.889605,"lon":135.15298,"length":72,"name_kr":"시야쿠쇼마에"},"008686":{"code":"008686","name":"西御坊","isMatched":true,"company":141,"line":445,"lat":33.886345,"lon":135.152945,"length":61,"name_kr":"니시고보"},"008670":{"code":"008670","name":"学門","isMatched":true,"company":141,"line":445,"lat":33.896245,"lon":135.15666,"length":75,"name_kr":"가쿠몬"},"003642":{"code":"003642","name":"井の頭公園","isMatched":true,"company":32,"line":78,"lat":35.697295,"lon":139.58312,"length":78,"name_kr":"이노카시라코엔"},"003588":{"code":"003588","name":"吉祥寺","isMatched":true,"company":32,"line":78,"lat":35.70229,"lon":139.58031,"length":60,"name_kr":"기치조지"},"003584":{"code":"003584","name":"吉祥寺","isMatched":true,"company":103,"line":297,"lat":35.703147,"lon":139.57999,"length":217,"name_kr":"기치조지"},"003674":{"code":"003674","name":"三鷹台","isMatched":true,"company":32,"line":78,"lat":35.69205,"lon":139.589295,"length":106,"name_kr":"미타카다이"},"003929":{"code":"003929","name":"駒場東大前","isMatched":true,"company":32,"line":78,"lat":35.65867,"lon":139.684075,"length":169,"name_kr":"고마바토다이마에"},"003938":{"code":"003938","name":"神泉","isMatched":true,"company":32,"line":78,"lat":35.65718,"lon":139.693252,"length":80,"name_kr":"신센"},"003846":{"code":"003846","name":"明大前","isMatched":true,"company":32,"line":78,"lat":35.669085,"lon":139.65038,"length":103,"name_kr":"메이다이마에"},"003855":{"code":"003855","name":"明大前","isMatched":true,"company":32,"line":79,"lat":35.668357,"lon":139.65055,"length":108,"name_kr":"메이다이마에"},"003930":{"code":"003930","name":"渋谷","isMatched":true,"company":32,"line":78,"lat":35.658551,"lon":139.699863,"length":155,"name_kr":"시부야"},"003923":{"code":"003923","name":"渋谷","isMatched":true,"company":102,"line":292,"lat":35.65945,"lon":139.701035,"length":192,"name_kr":"시부야"},"003926":{"code":"003926","name":"渋谷","isMatched":true,"company":102,"line":290,"lat":35.659099,"lon":139.702584,"length":197,"name_kr":"시부야"},"003924":{"code":"003924","name":"渋谷","isMatched":true,"company":99,"line":271,"lat":35.659107,"lon":139.702705,"length":137,"name_kr":"시부야"},